SALE TYPE,SOLD DATE,PROPERTY TYPE,ADDRESS,CITY,STATE OR PROVINCE,ZIP OR POSTAL CODE,PRICE,BEDS,BATHS,LOCATION,SQUARE FEET,LOT SIZE,YEAR BUILT,DAYS ON MARKET,$/SQUARE FEET,HOA/MONTH,STATUS,NEXT OPEN HOUSE START TIME,NEXT OPEN HOUSE END TIME,URL (SEE https://www.redfin.com/buy-a-home/comparative-market-analysis FOR INFO ON PRICING),SOURCE,MLS#,FAVORITE,INTERESTED,LATITUDE,LONGITUDE
"In accordance with local MLS rules, some MLS listings are not included in the download"
MLS Listing,,Single Family Residential,341 Hillman Ave,Staten  Island,NY,10314,699000,3,1.5,Staten  Island,1260,1800,1970,13,555,,Active,,,https://www.redfin.com/NY/Staten-Island/341-Hillman-Ave-10314/home/56061496,BNYMLS,490308,N,Y,40.6131832,-74.1627712
MLS Listing,,Condo/Co-op,187 WAYNE St Unit 117C,Jersey City,NJ,07302,450000,1,1.0,Jersey City (Downtown),753,,,13,598,741,Active,,,https://www.redfin.com/NJ/Jersey-City/187-Wayne-St-07302/unit-117C/home/59175724,HCMLS,250005659,N,Y,40.7209816,-74.050519
MLS Listing,,Multi-Family (2-4 Unit),661 KENNEDY Blvd,Bayonne,NJ,07002,749000,6,3.0,Bayonne,,,,19,,,Active,,,https://www.redfin.com/NJ/Bayonne/661-Kennedy-Blvd-07002/home/36469801,HCMLS,250002025,N,Y,40.6684573,-74.1213645
MLS Listing,,Condo/Co-op,689 LUIS M MARIN Blvd #808,Jersey City,NJ,07310,599000,1,1.0,Jersey City (Downtown),882,,,21,679,832,Active,,,https://www.redfin.com/NJ/Jersey-City/689-Luis-Munoz-Marin-Blvd-07310/unit-808/home/39915969,HCMLS,250005045,N,Y,40.7360074,-74.0389214
MLS Listing,,Condo/Co-op,106 OAK St #1,Jersey City,NJ,07304,699000,3,2.5,Jersey City (Bergen-Lafayette),1545,,,24,452,300,Active,,,https://www.redfin.com/NJ/Jersey-City/106-Oak-St-07304/unit-1/home/183592970,HCMLS,250004895,N,Y,40.7148875,-74.0785473
MLS Listing,,Condo/Co-op,2787 JOHN F KENNEDY Blvd #411,Jersey City,NJ,07306,599000,3,2.0,Jersey City (Journal Square),1174,,,24,510,623,Active,,,https://www.redfin.com/NJ/Jersey-City/2787-John-F-Kennedy-Blvd-07306/unit-411/home/36563960,HCMLS,250004886,N,Y,40.7311314,-74.0682401
MLS Listing,,Single Family Residential,78 Carriage House Rd,Bernardsville,NJ,07924,2500000,5,4.5,Bernardsville,5483,273992,1975,26,456,,Active,,,https://www.redfin.com/NJ/Bernardsville/78-Carriage-House-Rd-07924/home/37713468,BRIGHT MLS,NJSO2004176,N,Y,40.7499196,-74.5798525
MLS Listing,,Single Family Residential,732 Waterford Dr,Edison,NJ,08817,409900,2,2.0,Edison,1034,96,1994,32,396,343,Active,,,https://www.redfin.com/NJ/Edison/732-Waterford-Dr-08817/home/179476056,CJMLS,2561141M,N,Y,40.5438532,-74.3984747
MLS Listing,,Single Family Residential,1431 51ST St,North Bergen,NJ,07047,615000,3,2.0,North Bergen,1300,,,35,473,,Active,,,https://www.redfin.com/NJ/North-Bergen/1431-51st-St-07047/home/36596617,HCMLS,250003938,N,Y,40.786011597,-74.02782175
MLS Listing,,Condo/Co-op,1111 Conrad Way #1111,Franklin Twp.,NJ,08873-6076,459900,2,2.0,Somerset Run,1882,,2005,125,244,843,Active,,,https://www.redfin.com/NJ/Somerset/1111-Conrad-Way-08873/home/37652653,GSMLS,3936157,N,Y,40.5272112,-74.5394125
MLS Listing,,Multi-Family (2-4 Unit),285 LEMBECK Ave,Jersey City,NJ,07305,1155000,10,6.5,Jersey City (Greenville),,,,13,,,Active,,,https://www.redfin.com/NJ/Jersey-City/285-Lembeck-Ave-07305/home/36526070,HCMLS,250005732,N,Y,40.6995903,-74.0974187
MLS Listing,,Multi-Family (2-4 Unit),45 EDWARDS Ct,Bayonne,NJ,07002,895000,6,3.0,Bayonne,,,,13,,,Active,,,https://www.redfin.com/NJ/Bayonne/45-Edwards-Ct-07002/home/36472362,HCMLS,250005731,N,Y,40.6607227,-74.1319329
MLS Listing,,Single Family Residential,109 Maple Ave,Montclair,NJ,07042,675000,3,2.0,Montclair,,2825,,13,,,Active,,,https://www.redfin.com/NJ/Montclair/109-Maple-Ave-07042/home/36229050,NJMLS,25008386,N,Y,40.8031925,-74.2139571
MLS Listing,,Condo/Co-op,80 Bay Street Ln Unit 5D,St. Georges,NY,10301,635000,1,1.5,St. Georges,1200,,1985,13,529,,Active,,,https://www.redfin.com/NY/Staten-Island/80-Bay-Street-Lndg-10301/unit-5D/home/56116400,BNYMLS,490312,N,Y,40.6393422,-74.0737532
MLS Listing,,Single Family Residential,14 Lexington Ave,Carteret,NJ,07008,725000,5,3.5,Carteret,2000,5798,1958,13,363,,Active,,,https://www.redfin.com/NJ/Carteret/14-Lexington-Ave-07008/home/36761671,CJMLS,2510793R,N,Y,40.5868028,-74.2284738
MLS Listing,,Single Family Residential,145 Melrose Ave,Irvington,NJ,07111,319900,3,2.0,Irvington,,2801,,13,,,Active,,,https://www.redfin.com/NJ/Irvington/145-Melrose-Ave-07111/home/36169708,NJMLS,25009399,N,Y,40.7351732,-74.226929
MLS Listing,,Single Family Residential,778 Harbortown Blvd,Perth Amboy,NJ,08861,399999,3,3.0,Perth Amboy,1685,,1999,13,237,434,Active,,,https://www.redfin.com/NJ/Perth-Amboy/778-Harbortown-08861/home/183391311,CJMLS,2510912R,N,Y,40.519979,-74.2595018
MLS Listing,,Single Family Residential,1232 Bay St,New York,NY,10305,1750000,1,1.0,New York,,2500,,13,,,Active,,,https://www.redfin.com/NY/Staten-Island/1232-Bay-St-10305/home/195156406,BNYMLS,490322,N,Y,40.6131128,-74.0656764
MLS Listing,,Multi-Family (2-4 Unit),93 SHERMAN Pl,Jersey City,NJ,07307,1999000,4,3.0,Jersey City (Heights),,,,13,,,Active,,,https://www.redfin.com/NJ/Jersey-City/93-Sherman-Pl-07307/home/36417476,HCMLS,250005727,N,Y,40.7452359,-74.0550821
MLS Listing,,Condo/Co-op,234 SOUTH St #2,Jersey City,NJ,07307,899000,3,2.0,Jersey City (Heights),1350,,,13,666,226,Active,,,https://www.redfin.com/NJ/Jersey-City/234-South-St-07307/unit-2/home/190538722,HCMLS,250005726,N,Y,40.7513912,-74.0524225
MLS Listing,,Condo/Co-op,93 LAIDLAW Ave Unit 1A,Jersey City,NJ,07306,889000,4,2.5,Jersey City (Heights),2012,,,13,442,,Active,,,https://www.redfin.com/NJ/Jersey-City/93-Laidlaw-Ave-07306/unit-1A/home/194805033,HCMLS,250005724,N,Y,40.7372859,-74.0539406
MLS Listing,,Condo/Co-op,256 WEBSTER Ave #1,Jersey City,NJ,07307,699000,3,2.0,Jersey City (Heights),1213,,,13,576,298,Active,,,https://www.redfin.com/NJ/Jersey-City/256-Webster-Ave-07307/unit-1/home/194742700,HCMLS,250005722,N,Y,40.747134,-74.044044
MLS Listing,,Single Family Residential,66.5 CHARLES St,Jersey City,NJ,07307,669000,3,1.5,Jersey City (Heights),,,,13,,,Active,,,https://www.redfin.com/NJ/Jersey-City/66-Charles-St-07307/home/36522127,HCMLS,250005723,N,Y,40.749214,-74.0508547
MLS Listing,,Condo/Co-op,347 PAVONIA Ave #6,Jersey City,NJ,07302,725000,2,2.0,Jersey City (Downtown),1410,,,13,514,448,Active,,,https://www.redfin.com/NJ/Jersey-City/347-Pavonia-Ave-07302/unit-6/home/193046189,HCMLS,250005721,N,Y,40.7278703,-74.049663
MLS Listing,,Multi-Family (2-4 Unit),249 Forest Ave,Lyndhurst,NJ,07071,769000,3,2.5,Lyndhurst,,5998,,13,,,Active,,,https://www.redfin.com/NJ/Lyndhurst/249-Forest-Ave-07071/home/35778717,NJMLS,25009307,N,Y,40.8104925,-74.1304479
MLS Listing,,Condo/Co-op,166 STEUBEN St #1,Jersey City,NJ,07302,1249000,3,2.5,Jersey City (Downtown),1775,,,13,704,,Active,,,https://www.redfin.com/NJ/Jersey-City/166-Steuben-St-07302/unit-1/home/190748415,HCMLS,250005720,N,Y,40.7196998,-74.0402753
MLS Listing,,Condo/Co-op,22 PERRINE Ave #2,Jersey City,NJ,07306,999000,4,3.5,Jersey City (Journal Square),2376,,,13,420,,Active,,,https://www.redfin.com/NJ/Jersey-City/22-Perrine-Ave-07306/unit-2/home/185921974,HCMLS,250005719,N,Y,40.7292591,-74.0607042
MLS Listing,,Multi-Family (2-4 Unit),244 Franklin St,Elizabeth City,NJ,07206-1625,649999,6,3.0,Elizabeth City,19998,3049,,13,33,,Active,,,https://www.redfin.com/NJ/Elizabethport/244-Franklin-St-07206/home/37837588,GSMLS,3952866,N,Y,40.6504043,-74.1925611
MLS Listing,,Multi-Family (2-4 Unit),108 Berkshire Pl,Irvington Twp.,NJ,07111-3060,575000,5,3.0,Irvington Twp.,,3049,1953,13,,,Active,,,https://www.redfin.com/NJ/Irvington/108-Berkshire-Pl-07111/home/36178157,GSMLS,3952863,N,Y,40.7158873,-74.2335154
MLS Listing,,Condo/Co-op,70 GARDNER Ave #2,Jersey City,NJ,07304,799000,3,2.5,Jersey City (Journal Square),1429,,,13,559,,Active,,,https://www.redfin.com/NJ/Jersey-City/70-Gardner-Ave-07304/unit-2/home/190838694,HCMLS,250005713,N,Y,40.7207219,-74.0700001
MLS Listing,,Condo/Co-op,46 GARDNER Ave #2,Jersey City,NJ,07304,835000,3,2.5,Jersey City (Journal Square),1858,,,13,449,,Active,,,https://www.redfin.com/NJ/Jersey-City/46-Gardner-Ave-07304/unit-2/home/190841019,HCMLS,250005714,N,Y,40.720357,-74.069007
MLS Listing,,Condo/Co-op,10 BRINKERHOFF St #303,Jersey City,NJ,07304,679000,2,2.0,Jersey City (Bergen-Lafayette),1137,,,13,597,,Active,,,https://www.redfin.com/NJ/Jersey-City/10-Brinkerhoff-St-07304/unit-303/home/188774918,HCMLS,250005712,N,Y,40.7180235,-74.0709294
MLS Listing,,Condo/Co-op,10 BRINKERHOFF St #201,Jersey City,NJ,07304,449000,1,1.0,Jersey City (Bergen-Lafayette),767,,,13,585,,Active,,,https://www.redfin.com/NJ/Jersey-City/10-Brinkerhoff-St-07304/unit-201/home/190217976,HCMLS,250005711,N,Y,40.7180235,-74.0709294
MLS Listing,,Condo/Co-op,138 71 St Unit C4,Brooklyn,NY,11209,239000,0,1.0,Brooklyn,450,,1950,13,531,,Active,,,https://www.redfin.com/NY/Brooklyn/138-71st-St-11209/unit-C4/home/40681092,BNYMLS,490224,N,Y,40.635057,-74.0310044
MLS Listing,,Single Family Residential,439 Marine Ave,Brooklyn,NY,11209,888000,2,2.0,Brooklyn,936,1430,1930,13,949,,Active,,,https://www.redfin.com/NY/Brooklyn/439-Marine-Ave-11209/home/40820559,BNYMLS,490254,N,Y,40.6136509,-74.0314254
MLS Listing,,Condo/Co-op,1223 HARMON COVE TOWER #1223,Secaucus,NJ,07094,350000,2,2.0,Secaucus,1379,,,13,254,1056,Active,,,https://www.redfin.com/NJ/Secaucus/1223-Harmon-Cove-Tower-07094/home/36606381,HCMLS,250005707,N,Y,40.7816362,-74.0784625
MLS Listing,,Condo/Co-op,264 9TH St Unit 1K,Jersey City,NJ,07302,595000,1,1.0,Jersey City (Downtown),785,,,13,758,671,Active,,,https://www.redfin.com/NJ/Jersey-City/286-9th-St-07302/unit-1K/home/146328988,HCMLS,250005706,N,Y,40.7286986,-74.0464215
MLS Listing,,Single Family Residential,587 West Ct,Scotch Plains Twp.,NJ,07076-1944,1299000,5,2.5,Scotch Plains Twp.,,8712,1956,13,,,Active,,,https://www.redfin.com/NJ/Scotch-Plains/587-West-Ct-07076/home/38051917,GSMLS,3952850,N,Y,40.6545355,-74.3855006
MLS Listing,,Condo/Co-op,15 Dartmouth Ave Unit 3A,Bridgewater Twp.,NJ,08807-3422,249900,2,1.0,Bridgewater Township,,,1960,13,,342,Active,,,https://www.redfin.com/NJ/Bridgewater/15-Dartmouth-Ave-08807/unit-3A/home/37649837,GSMLS,3952849,N,Y,40.572773,-74.5811218
MLS Listing,,Condo/Co-op,10 BRINKERHOFF St #203,Jersey City,NJ,07304,449000,1,1.0,Jersey City (Bergen-Lafayette),802,,,13,560,134,Active,,,https://www.redfin.com/NJ/Jersey-City/10-Brinkerhoff-St-07304/unit-203/home/189063269,HCMLS,250005704,N,Y,40.7180235,-74.0709294
MLS Listing,,Townhouse,5125 Amboy Rd,Staten Island,NY,10312,1628000,3,2.5,Annadale,2508,4407,2004,13,649,,Active,,,https://www.redfin.com/NY/Staten-Island/5125-Amboy-Rd-10312/home/56091476,SIBORMLS,2501572,N,Y,40.53599,-74.1814291
MLS Listing,,Single Family Residential,285 Bartlett Ave,Staten Island,NY,10312,599000,2,1.5,Eltingville,1480,1820,1990,13,405,,Active,,,https://www.redfin.com/NY/Staten-Island/285-Bartlett-Ave-10312/home/56107493,SIBORMLS,2501571,N,Y,40.5552217,-74.167382
MLS Listing,,Condo/Co-op,389 WASHINGTON St Unit 11H,Jersey City,NJ,07302,775000,1,1.0,Jersey City (Downtown),756,,,13,1025,600,Active,,,https://www.redfin.com/NJ/Jersey-City/389-Washington-St-07302/unit-11H/home/40620638,HCMLS,250005700,N,Y,40.7214644,-74.036852
MLS Listing,,Condo/Co-op,128 MADISON St Unit 1L,Hoboken,NJ,07030,435000,1,1.0,Hoboken,550,,,13,791,284,Active,,,https://www.redfin.com/NJ/Hoboken/128-Madison-St-07030/unit-1L/home/36437745,HCMLS,250005099,N,Y,40.7399836,-74.0390552
MLS Listing,,Single Family Residential,15 Hamilton Ave,Cranford Twp.,NJ,07016-2447,1399000,7,3.5,Cranford Twp.,,18730,1895,13,,,Active,,,https://www.redfin.com/NJ/Cranford/15-Hamilton-Ave-07016/home/37819928,GSMLS,3952834,N,Y,40.6593686,-74.2956188
MLS Listing,,Townhouse,198 Hylan Blvd,Staten Island,NY,10305,838000,4,3.5,Rosebank,1216,3139,1996,13,689,,Active,,,https://www.redfin.com/NY/Staten-Island/198-Hylan-Blvd-10305/home/56041131,SIBORMLS,2501570,N,Y,40.6124865,-74.0687276
MLS Listing,,Townhouse,85 Wakeman Ave,Newark,NJ,07104,545000,4,3.5,Newark,,1612,,13,,,Active,,,https://www.redfin.com/NJ/Newark/85-Wakeman-Ave-07104/home/36244230,NJMLS,25009476,N,Y,40.7646053,-74.167404
MLS Listing,,Multi-Family (2-4 Unit),463 21st St,Irvington,NJ,07111,999900,12,6.0,Irvington,,2919,,13,,,Active,,,https://www.redfin.com/NJ/Irvington/463-21st-St-07111/home/36175224,NJMLS,25009437,N,Y,40.7271182,-74.2174091
MLS Listing,,Other,742 Lyons Ave,Irvington,NJ,07111,1299000,,,Irvington,,,,13,,,Active,,,https://www.redfin.com/NJ/Irvington/742-Lyons-Ave-07111/home/195155126,NJMLS,25009484,N,Y,40.7216385,-74.2332248
MLS Listing,,Condo/Co-op,99 HUDSON St #4810,Jersey City,NJ,07302,1550000,2,2.0,Jersey City (Downtown),1164,,,13,1332,,Active,,,https://www.redfin.com/NJ/Jersey-City/99-Hudson-St-07302/unit-4810/home/171606914,HCMLS,250005693,N,Y,40.7156252,-74.0348194
MLS Listing,,Multi-Family (2-4 Unit),13 SILVER St,Bayonne,NJ,07002,869000,7,5.0,Bayonne,,,,13,,,Active,,,https://www.redfin.com/NJ/Bayonne/13-Silver-St-07002/home/36475765,HCMLS,250005694,N,Y,40.6529923,-74.1266919
MLS Listing,,Multi-Family (2-4 Unit),267 New York Ave,Newark,NJ,07105,750000,5,3.0,Newark,,2505,,13,,,Active,,,https://www.redfin.com/NJ/Newark/267-New-York-Ave-07105/home/36254416,NJMLS,25009469,N,Y,40.7249232,-74.1579736
MLS Listing,,Condo/Co-op,40-44 Rome St #3,Newark,NJ,07105,380000,2,1.0,Newark,,7500,,13,,300,Active,,,https://www.redfin.com/NJ/Newark/40-44-Rome-St-07105/unit-3/home/145123866,NJMLS,25009439,N,Y,40.7217699,-74.1495999
MLS Listing,,Single Family Residential,82 Piedmont Ave,Staten Island,NY,10305,2295000,4,3.5,Staten Island,4500,4000,2024,13,510,,Active,,,https://www.redfin.com/NY/Staten-Island/82-Piedmont-Ave-10305/home/56130725,OneKey® MLS as Distributed by MLS Grid,840024,N,Y,40.6018667,-74.075118
MLS Listing,,Townhouse,251 Cambridge Ave,Staten Island,NY,10314,1348000,6,5.0,Westerleigh,2600,4000,2018,13,518,,Active,,,https://www.redfin.com/NY/Staten-Island/251-Cambridge-Ave-10314/home/56061934,SIBORMLS,2501569,N,Y,40.6114228,-74.1502716
MLS Listing,,Condo/Co-op,40-44 Rome St #3,Newark City,NJ,07105-3318,380000,2,1.0,Newark City,,7405,1992,13,,,Active,,,https://www.redfin.com/NJ/Newark/40-44-Rome-St-07105/unit-3/home/153822135,GSMLS,3952814,N,Y,40.7229271,-74.1481727
MLS Listing,,Single Family Residential,280 Oldfield St,Staten Island,NY,10306,849900,4,2.5,Midland Beach,2496,2600,1985,13,341,,Active,,,https://www.redfin.com/NY/Staten-Island/280-Oldfield-St-10306/home/56067488,SIBORMLS,2501568,N,Y,40.5731584,-74.1002604
MLS Listing,,Condo/Co-op,99 HUDSON St #4102,Jersey City,NJ,07302,1495000,2,2.0,Jersey City (Downtown),1164,,,13,1284,1036,Active,,,https://www.redfin.com/NJ/Jersey-City/99-Hudson-St-07302/unit-4102/home/171606823,HCMLS,250005687,N,Y,40.7156252,-74.0348194
MLS Listing,,Townhouse,59 Willowwood Ln,Staten Island,NY,10308,898988,4,3.5,Great Kills,2408,2510,1982,13,373,,Active,,,https://www.redfin.com/NY/Staten-Island/59-Willow-Wood-Ln-10308/home/56086641,SIBORMLS,2501567,N,Y,40.559264,-74.143235
MLS Listing,,Other,1400 Springfield Ave,Irvington,NJ,07111,1099000,,,Irvington,,,,13,,,Active,,,https://www.redfin.com/NJ/Irvington/1400-Springfield-Ave-07111/home/195154427,NJMLS,25009455,N,Y,40.724024,-74.247504
MLS Listing,,Condo/Co-op,99 HUDSON St #4100,Jersey City,NJ,07302,1465000,2,2.0,Jersey City (Downtown),1117,,,13,1312,994,Active,,,https://www.redfin.com/NJ/Jersey-City/99-Hudson-St-07302/unit-4100/home/171606821,HCMLS,250005686,N,Y,40.7156252,-74.0348194
MLS Listing,,Single Family Residential,150 W 5Th Ave,Roselle Boro,NJ,07203-1903,879900,7,3.5,Roselle Boro,,10018,,13,,,Active,,,https://www.redfin.com/NJ/Roselle/150-W-5th-Ave-07203/home/38027588,GSMLS,3952805,N,Y,40.6551219,-74.2648142
MLS Listing,,Condo/Co-op,99 HUDSON St #4203,Jersey City,NJ,07302,845000,1,1.0,Jersey City (Downtown),758,,,13,1115,,Active,,,https://www.redfin.com/NJ/Jersey-City/99-Hudson-St-07302/unit-4203/home/171606836,HCMLS,250005680,N,Y,40.7156252,-74.0348194
MLS Listing,,Multi-Family (2-4 Unit),59 Oxford Pl,Staten Island,NY,10301,1599999,8,4.0,Silver Lake,3900,4000,1920,13,410,,Active,,,https://www.redfin.com/NY/Staten-Island/59-Oxford-Pl-10301/home/56086975,SIBORMLS,2501563,N,Y,40.6332923,-74.0880829
MLS Listing,,Single Family Residential,465 Elmwood Ave,Maplewood,NJ,07040,849000,4,2.5,Maplewood,,5001,,13,,,Active,,,https://www.redfin.com/NJ/Maplewood/465-Elmwood-Ave-07040/home/36369626,NJMLS,25006314,N,Y,40.7306284,-74.2640109
MLS Listing,,Condo/Co-op,99 HUDSON St #4101,Jersey City,NJ,07302,1028000,1,1.0,Jersey City (Downtown),839,,,13,1225,,Active,,,https://www.redfin.com/NJ/Jersey-City/99-Hudson-St-07302/unit-4101/home/171606822,HCMLS,250005676,N,Y,40.7156252,-74.0348194
MLS Listing,,Condo/Co-op,155 Bay St Unit 4h,Staten Island,NY,10301,429000,1,2.0,Tompkinsville,962,1008,2005,13,446,702,Active,,,https://www.redfin.com/NY/Staten-Island/155-Bay-St-10301/unit-4H/home/56135007,SIBORMLS,2501562,N,Y,40.638148,-74.0756332
MLS Listing,,Multi-Family (2-4 Unit),127 W 48TH St,Bayonne,NJ,07002,898000,5,2.0,Bayonne,,,,13,,,Active,,,https://www.redfin.com/NJ/Bayonne/127-W-48th-St-07002/home/36462517,HCMLS,250005674,N,Y,40.6844052,-74.1086265
MLS Listing,,Single Family Residential,56 Ridge St,Orange,NJ,07050,599900,5,2.0,Orange,2764,6534,1899,13,217,,Pre On-Market,,,https://www.redfin.com/NJ/Orange/56-Ridge-St-07050/home/36324683,BRIGHT MLS,NJES2000244,N,Y,40.7756538,-74.2336125
MLS Listing,,Townhouse,100 Everett Ave,Staten Island,NY,10309,1298889,3,3.5,Princes Bay,2810,4999,1992,13,462,,Active,,,https://www.redfin.com/NY/Staten-Island/100-Everett-Ave-10309/home/56020197,SIBORMLS,2501559,N,Y,40.5170293,-74.2046303
MLS Listing,,Condo/Co-op,60 E Parkway Dr Unit 11C,East Orange,NJ,07017,260000,2,2.0,East Orange,,,,13,,816,Active,,,https://www.redfin.com/NJ/East-Orange/60-Parkway-Dr-E-07017/unit-11C/home/36076489,NJMLS,25009421,N,Y,40.7692599,-74.2036133
MLS Listing,,Condo/Co-op,302 96th St Unit 2A,Brooklyn,NY,11209,359000,1,1.0,Brooklyn,725,,1951,13,495,808,Active,,,https://www.redfin.com/NY/Brooklyn/302-96th-St-11209/unit-2A/home/40660524,OneKey® MLS as Distributed by MLS Grid,839879,N,Y,40.61593,-74.0335829
MLS Listing,,Multi-Family (2-4 Unit),172 6TH St,Harrison,NJ,07029,938000,9,3.0,Harrison,,,,13,,,Active,,,https://www.redfin.com/NJ/Harrison/172-6th-St-07029/home/36486721,HCMLS,250005668,N,Y,40.7455044,-74.1521416
MLS Listing,,Single Family Residential,63 Village Rd,Harding Twp.,NJ,07960-7315,3949000,7,8.0,New Vernon,9000,295772,2023,13,439,,Active,,,https://www.redfin.com/NJ/Morristown/63-Village-Dr-07960/home/37112034,GSMLS,3952760,N,Y,40.7869735,-74.4580862
MLS Listing,,Townhouse,86 Serrell Ave,Staten Island,NY,10312,1499000,4,3.5,Eltingville,2606,3850,2017,13,575,,Active,,,https://www.redfin.com/NY/Staten-Island/86-Serrell-Ave-10312/home/92332178,SIBORMLS,2501557,N,Y,40.5471275,-74.1701143
MLS Listing,,Condo/Co-op,1 SHORE Ln #806,Jersey City,NJ,07310,950000,2,2.0,Jersey City (Downtown),1175,,,13,809,922,Active,,,https://www.redfin.com/NJ/Jersey-City/1-Shore-Ln-07310/unit-806/home/39919613,HCMLS,250005663,N,Y,40.7304035,-74.0323796
MLS Listing,,Condo/Co-op,10 Smith Manor Blvd #406,West Orange,NJ,07052,769000,3,2.5,West Orange,,,,13,,1933,Active,,,https://www.redfin.com/NJ/West-Orange/10-Smith-Manor-Blvd-07052/unit-406/home/36357595,NJMLS,25009394,N,Y,40.8017467,-74.2416162
MLS Listing,,Condo/Co-op,329 ADAMS St #4,Hoboken,NJ,07030,575000,2,1.0,Hoboken,790,,,13,728,400,Active,,,https://www.redfin.com/NJ/Hoboken/329-Adams-St-07030/unit-4/home/36491987,HCMLS,250005661,N,Y,40.7421282,-74.0360379
MLS Listing,,Single Family Residential,657 PALISADE Ave,Jersey City,NJ,07307,649000,3,1.0,Jersey City (Heights),,,,13,,,Active,,,https://www.redfin.com/NJ/Jersey-City/657-Palisade-Ave-07307/home/36520291,HCMLS,250005660,N,Y,40.7509781,-74.0400757
MLS Listing,,Townhouse,74 Pitney Ave,Staten Island,NY,10309,1299000,3,3.5,Princes Bay,2080,3500,2001,13,625,140,Active,,,https://www.redfin.com/NY/Staten-Island/74-Pitney-Ave-10309/home/56090269,SIBORMLS,2501148,N,Y,40.5300902,-74.220325
MLS Listing,,Single Family Residential,2 Hoyt St,Madison Boro,NJ,07940-1633,1900000,5,4.5,Madison Boro,,16117,1997,13,,,Active,,,https://www.redfin.com/NJ/Madison/2-Hoyt-St-07940/home/37213621,GSMLS,3951615,N,Y,40.7691901,-74.4052868
MLS Listing,,Townhouse,4 Riga Ct,Scotch Plains Twp.,NJ,07076-2059,550000,2,3.0,Riga Estates,1520,,2002,13,362,545,Active,,,https://www.redfin.com/NJ/Scotch-Plains/4-Riga-Ct-07076/home/37750784,GSMLS,3952375,N,Y,40.660266,-74.380754
MLS Listing,,Single Family Residential,147 Watchung Ave,Chatham Boro,NJ,07928-1829,1750000,4,3.5,Chatham Boro,,9583,1927,13,,,Active,,,https://www.redfin.com/NJ/Chatham/147-Watchung-Ave-07928/home/37136831,GSMLS,3951848,N,Y,40.7349181,-74.3895159
MLS Listing,,Multi-Family (2-4 Unit),152 Court St,Elizabeth City,NJ,07206-1805,675000,5,4.0,Elizabeth City,,2613,1920,13,,,Active,,,https://www.redfin.com/NJ/Elizabethport/152-Court-St-07206/home/37837161,GSMLS,3952160,N,Y,40.6512852,-74.1862779
MLS Listing,,Townhouse,126 Pouch Ter,Staten Island,NY,10305,999999,5,2.5,Grasmere,2200,4344,1974,13,455,,Active,,,https://www.redfin.com/NY/Staten-Island/126-Pouch-Ter-10305/home/56026711,SIBORMLS,2501287,N,Y,40.6029485,-74.076418
MLS Listing,,Multi-Family (2-4 Unit),768-B State St,Perth Amboy,NJ,08861,650000,0,,Perth Amboy,1962,2021,1940,13,331,,Active,,,https://www.redfin.com/NJ/Perth-Amboy/768-State-St-08861/home/194746400,CJMLS,2510882R,N,Y,40.5238652,-74.2641234
MLS Listing,,Single Family Residential,5 Osprey Ct,Staten Island,NY,10308,2650000,4,4.5,Great Kills,4614,11110,2025,14,574,,Active,,,https://www.redfin.com/NY/Staten-Island/5-Osprey-Ct-10308/home/170436554,SIBORMLS,2501553,N,Y,40.546658,-74.137171
MLS Listing,,Multi-Family (2-4 Unit),21 BOYD Ave,Jersey City,NJ,07304,599999,4,2.0,Jersey City (Bergen-Lafayette),,,,14,,,Active,,,https://www.redfin.com/NJ/Jersey-City/21-Boyd-Ave-07304/home/36552338,HCMLS,250005657,N,Y,40.7155285,-74.0812433
MLS Listing,,Single Family Residential,1016 Chancellor Ave,Maplewood Twp.,NJ,07040-3015,900000,4,2.0,Light Commercial,3200,10018,1945,14,281,,Active,,,https://www.redfin.com/NJ/Maplewood/1016-Chancellor-Ave-07040/home/194448211,GSMLS,3952716,N,Y,40.7223635,-74.2506963
MLS Listing,,Single Family Residential,526 88th St,Brooklyn,NY,11209,1088888,3,2.5,Brooklyn,2166,1900,1940,14,503,,Active,,,https://www.redfin.com/NY/Brooklyn/526-88th-St-11209/home/40819392,BNYMLS,490306,N,Y,40.6198386,-74.0265969
MLS Listing,,Single Family Residential,17 John St,Chatham Boro,NJ,07928-2208,2999999,5,4.5,Chatham Boro,,11325,2025,14,,,Pre On-Market,,,https://www.redfin.com/NJ/Chatham/17-John-St-07928/home/37136585,GSMLS,3952705,N,Y,40.7455723,-74.3852786
MLS Listing,,Townhouse,1435 Barnhardt Ln #1435,Rahway City,NJ,07065-5088,495000,2,2.5,Riverwalk At Rahway,1745,2613,2006,14,284,365,Active,,,https://www.redfin.com/NJ/Rahway/1435-Barnhardt-Ln-07065/unit-1435/home/178521351,GSMLS,3952699,N,Y,40.602863,-74.2705791
MLS Listing,,Multi-Family (2-4 Unit),1518 38TH St,North Bergen,NJ,07047,995000,4,3.0,North Bergen,,,,14,,,Active,,,https://www.redfin.com/NJ/North-Bergen/1518-38th-St-07047/home/36596057,HCMLS,250005651,N,Y,40.779704,-74.034957
MLS Listing,,Multi-Family (2-4 Unit),69 W 19TH St,Bayonne,NJ,07002,999000,7,5.0,Bayonne,,,,14,,,Active,,,https://www.redfin.com/NJ/Bayonne/69-W-19th-St-07002/home/36470455,HCMLS,250005650,N,Y,40.6630918,-74.1233422
MLS Listing,,Single Family Residential,68 Brunswick St,Newark City,NJ,07114-1955,450000,4,1.0,Newark City,,3049,1857,14,,,Active,,,https://www.redfin.com/NJ/Newark/68-Brunswick-St-07114/home/36275441,GSMLS,3952690,N,Y,40.7239644,-74.1823194
MLS Listing,,Single Family Residential,1435 Barnhardt Ln #604,Rahway,NJ,07065,495000,2,2.5,Rahway,1745,2400,2006,14,284,356,Active,,,https://www.redfin.com/NJ/Rahway/1435-Barnhardt-Ln-07065/unit-604/home/171789531,CJMLS,2561262M,N,Y,40.6028738,-74.270594
MLS Listing,,Multi-Family (2-4 Unit),67 W 19TH St,Bayonne,NJ,07002,999000,,,Bayonne,,,,14,,,Active,,,https://www.redfin.com/NJ/Bayonne/67-W-19th-St-07002/home/36470452,HCMLS,250005648,N,Y,40.6630426,-74.1232751
MLS Listing,,Townhouse,89 LINCOLN St #2,Jersey City,NJ,07307,949000,3,3.5,Jersey City (Heights),1642,,,14,578,,Active,,,https://www.redfin.com/NJ/Jersey-City/89-Lincoln-St-07307/unit-2/home/185538421,HCMLS,250005647,N,Y,40.7479945,-74.0529733
MLS Listing,,Single Family Residential,77 Warwick St,East Orange City,NJ,07017-5020,490000,4,2.0,East Orange City,,3484,1925,14,,,Active,,,https://www.redfin.com/NJ/East-Orange/77-Warwick-St-07017/home/36144006,GSMLS,3952681,N,Y,40.7725746,-74.193702
MLS Listing,,Single Family Residential,688 N Railroad Ave,Staten Island,NY,10304,679900,3,1.5,Dongan Hills-Above Hylan,1410,2902,1980,14,482,,Active,,,https://www.redfin.com/NY/Staten-Island/688-N-Railroad-Ave-10304/home/56114276,SIBORMLS,2501552,N,Y,40.5882578,-74.0975184
MLS Listing,,Condo/Co-op,256 WEBSTER Ave #3,Jersey City,NJ,07307,775000,3,2.0,Jersey City (Heights),1380,,,14,562,389,Active,,,https://www.redfin.com/NJ/Jersey-City/256-Webster-Ave-07307/unit-3/home/194742653,HCMLS,250005645,N,Y,40.747134,-74.044044
MLS Listing,,Multi-Family (2-4 Unit),33 Rose Ter,Newark,NJ,07108,499000,6,2.0,Newark,,3463,,14,,,Active,,,https://www.redfin.com/NJ/Newark/33-Rose-Ter-07108/home/36271755,NJMLS,25009375,N,Y,40.7266643,-74.2007438
MLS Listing,,Condo/Co-op,115 E 96th St Unit 6A,Brooklyn,NY,11209,948880,2,2.0,Brooklyn,953,,1988,14,996,,Active,,,https://www.redfin.com/NY/Brooklyn/115-96th-St-11209/unit-6A/home/40914733,BNYMLS,490300,N,Y,40.6163216,-74.0374941
MLS Listing,,Multi-Family (2-4 Unit),36-38 W 33RD St,Bayonne,NJ,07002,1199000,8,3.0,Bayonne,,,,14,,,Active,,,https://www.redfin.com/NJ/Bayonne/36-38-W-33rd-St-07002/home/193791341,HCMLS,250005639,N,Y,40.672521,-74.113059
MLS Listing,,Multi-Family (2-4 Unit),946 Elizabeth Ave,Elizabeth City,NJ,07201-2646,789000,2,2.5,Elizabeth City,,2613,1925,14,,,Active,,,https://www.redfin.com/NJ/Elizabeth/946-Elizabeth-Ave-07201/home/194976881,GSMLS,3952658,N,Y,40.6600525,-74.2069154
MLS Listing,,Single Family Residential,4309 KENNEDY Blvd,North Bergen,NJ,07047,615000,3,2.0,North Bergen,,,,14,,,Active,,,https://www.redfin.com/NJ/North-Bergen/4309-Kennedy-Blvd-07047/home/36596200,HCMLS,250005638,N,Y,40.7798803,-74.0264245
MLS Listing,,Multi-Family (2-4 Unit),319 21ST St,Union City,NJ,07087,799999,7,4.0,Union City,,,,14,,,Active,,,https://www.redfin.com/NJ/Union-City/319-21st-St-07087/home/36617670,HCMLS,250005636,N,Y,40.7649043,-74.0321122
MLS Listing,,Multi-Family (2-4 Unit),217 Myrtle Ave,Irvington Twp.,NJ,07111-2657,549000,6,3.0,Irvington Twp.,3000,3920,1960,14,183,,Active,,,https://www.redfin.com/NJ/Irvington/217-Myrtle-Ave-07111/home/36171856,GSMLS,3952651,N,Y,40.7331221,-74.2232608
MLS Listing,,Condo/Co-op,388 COMMUNIPAW Ave Unit 2A/201,Jersey City,NJ,07304,435000,2,1.0,Jersey City (Bergen-Lafayette),684,,,14,636,292,Active,,,https://www.redfin.com/NJ/Jersey-City/388-Communipaw-Ave-07304/unit-2A-201/home/192992229,HCMLS,250005633,N,Y,40.7127059,-74.0639078
MLS Listing,,Multi-Family (2-4 Unit),63 W 19TH St,Bayonne,NJ,07002,999000,7,5.0,Bayonne,,,,14,,,Active,,,https://www.redfin.com/NJ/Bayonne/63-W-19th-St-07002/home/165434288,HCMLS,250005632,N,Y,40.6629903,-74.1231013
MLS Listing,,Multi-Family (2-4 Unit),746 Trumbull St,Elizabeth City,NJ,07201-2821,510000,5,2.5,Elizabeth City,19998,2613,,14,26,,Active,,,https://www.redfin.com/NJ/Elizabeth/746-Trumbull-St-07201/home/37867120,GSMLS,3952631,N,Y,40.6624418,-74.196979
MLS Listing,,Townhouse,450 Drumgoole Rd W,Staten Island,NY,10312,867500,5,3.0,Arden Heights,2000,6532,1986,14,434,,Active,,,https://www.redfin.com/NY/Staten-Island/450-Drumgoole-Rd-W-10312/home/56098234,SIBORMLS,2501547,N,Y,40.5596059,-74.173986
MLS Listing,,Single Family Residential,35 Jeffrey Pl,Staten Island,NY,10307,2700000,4,5.0,Tottenville,5200,9435,1985,14,519,63,Active,,,https://www.redfin.com/NY/Staten-Island/35-Jeffrey-Pl-10307/home/56020997,SIBORMLS,2501546,N,Y,40.5118158,-74.2327136
MLS Listing,,Multi-Family (2-4 Unit),291 Laurel Ave,Kearny,NJ,07032,769000,5,3.0,Kearny,,3324,,14,,,Active,,,https://www.redfin.com/NJ/Kearny/291-Laurel-Ave-07032/home/36587485,NJMLS,25008291,N,Y,40.7708239,-74.135885
MLS Listing,,Multi-Family (2-4 Unit),732 18th Ave,Irvington,NJ,07111,684999,8,3.0,Irvington,,3419,,14,,,Active,,,https://www.redfin.com/NJ/Irvington/732-18th-Ave-07111/home/36173018,NJMLS,25009335,N,Y,40.7354983,-74.217296
MLS Listing,,Multi-Family (2-4 Unit),82 Pulaski Ave,Carteret,NJ,07008,950000,0,,Carteret,2688,5001,1908,14,353,,Active,,,https://www.redfin.com/NJ/Carteret/82-Pulaski-Ave-07008/home/36739703,CJMLS,2510858R,N,Y,40.5749865,-74.2259741
MLS Listing,,Single Family Residential,44 Lovell Ave,Staten Island,NY,10314,598800,2,1.5,New Springville,1158,1081,1986,14,517,254,Active,,,https://www.redfin.com/NY/Staten-Island/44-Lovell-Ave-10314/home/56062625,SIBORMLS,2501544,N,Y,40.5914442,-74.1501102
MLS Listing,,Townhouse,307 Bay 11th St,Brooklyn,NY,11228,1398000,4,2.5,Brooklyn,1928,2318,1950,14,725,,Active,,,https://www.redfin.com/NY/Brooklyn/307-Bay-11th-St-11228/home/40833387,OneKey® MLS as Distributed by MLS Grid,837570,N,Y,40.6043028,-74.0142273
MLS Listing,,Single Family Residential,46 Shepard Ave,East Orange City,NJ,07018-2903,449000,6,2.5,East Orange City,,5662,1925,14,,,Active,,,https://www.redfin.com/NJ/East-Orange/46-Shepard-Ave-07018/home/36149028,GSMLS,3952624,N,Y,40.7571302,-74.2167994
MLS Listing,,Single Family Residential,46 Arverne Ter,Irvington Twp.,NJ,07111-3815,349999,3,1.0,Irvington Twp.,,1742,1907,14,,,Active,,,https://www.redfin.com/NJ/Irvington/46-Arverne-Ter-07111/home/36063960,GSMLS,3952622,N,Y,40.7386208,-74.2159378
MLS Listing,,Multi-Family (5+ Unit),,Staten Island,NY,10304,1800000,4,2.0,,7707,5625,2008,14,234,,Active,,,https://www.redfin.com/NY/Staten-Island/Undisclosed-address-10304/home/166947038,SIBORMLS,2501545,N,Y,40.6276064,-74.0755419
MLS Listing,,Vacant Land,1930 Mountain Top Rd,Bridgewater Twp.,NJ,08807-2309,1250000,,,Mountain Top,,48787,,14,,,Active,,,https://www.redfin.com/NJ/Bridgewater-Township/1930-Mountain-Top-Rd-08807/home/161635298,GSMLS,3952609,N,Y,40.5897108,-74.5843554
MLS Listing,,Multi-Family (2-4 Unit),839 Cross Ave,Elizabeth City,NJ,07208-3538,679900,5,3.5,North Elizabeth,19998,4356,1920,14,34,,Active,,,https://www.redfin.com/NJ/Elizabeth/839-Cross-Ave-07208/home/37888016,GSMLS,3952610,N,Y,40.683225,-74.21016
MLS Listing,,Multi-Family (2-4 Unit),550 83rd St,Brooklyn,NY,11209,1850000,7,4.5,Brooklyn,2400,2400,1925,14,771,,Active,,,https://www.redfin.com/NY/Brooklyn/550-83rd-St-11209/home/40817852,BNYMLS,490276,N,Y,40.6226684,-74.0238957
MLS Listing,,Condo/Co-op,10 N Wood Ave #300,Linden City,NJ,07036-5200,240000,1,1.0,Linden Towers Condominiums,,871,1998,14,,524,Active,April-10-2025 05:00 PM,April-10-2025 07:00 PM,https://www.redfin.com/NJ/Linden/10-N-Wood-Ave-07036/unit-300/home/37931550,GSMLS,3952596,N,Y,40.6308577,-74.2513647
MLS Listing,,Townhouse,54 Poillon Ave,Staten Island,NY,10312,1675000,5,5.0,Annadale,3100,6880,2025,14,540,,Active,,,https://www.redfin.com/NY/Staten-Island/54-Poillon-Ave-10312/home/195138207,SIBORMLS,2501539,N,Y,40.5340068,-74.1784437
MLS Listing,,Single Family Residential,50 Poillon Ave,Staten Island,NY,10312,1550000,4,4.0,Annadale,2750,6000,2025,14,564,,Active,,,https://www.redfin.com/NY/Staten-Island/50-Poillon-Ave-10312/home/195137959,SIBORMLS,2501538,N,Y,40.5340985,-74.1784934
MLS Listing,,Single Family Residential,572 Bridgewater Ave,Bridgewater Twp.,NJ,08807-3216,465000,4,1.0,Bridgewater Twp.,,7405,1950,14,,,Active,,,https://www.redfin.com/NJ/Bridgewater/572-Bridgewater-Ave-08807/home/37762457,GSMLS,3952592,N,Y,40.5621698,-74.5826628
MLS Listing,,Single Family Residential,449 Willow Ave,Lyndhurst,NJ,07071,585000,3,2.0,Lyndhurst,,3698,,14,,,Active,,,https://www.redfin.com/NJ/Lyndhurst/449-Willow-Ave-07071/home/35778943,NJMLS,25007497,N,Y,40.8118829,-74.132443
MLS Listing,,Multi-Family (2-4 Unit),151 AUDUBON Ave,Jersey City,NJ,07305,900000,8,3.0,Jersey City (West Bergen),,,,14,,,Active,,,https://www.redfin.com/NJ/Jersey-City/151-Audubon-Ave-07305/home/36528043,HCMLS,250005616,N,Y,40.7106284,-74.0914998
MLS Listing,,Multi-Family (2-4 Unit),811 SIP St,Union City,NJ,07087,900000,5,4.0,Union City,,,,14,,,Active,,,https://www.redfin.com/NJ/Union-City/811-Sip-St-07087/home/36619279,HCMLS,250005611,N,Y,40.7738165,-74.0330379
MLS Listing,,Condo/Co-op,543 PALISADE Ave #5,Jersey City,NJ,07307,329000,1,1.0,Jersey City (Heights),693,,,14,475,241,Active,,,https://www.redfin.com/NJ/Jersey-City/543-Palisade-Ave-07307/unit-5/home/189071268,HCMLS,250005609,N,Y,40.7470545,-74.0427037
MLS Listing,,Multi-Family (2-4 Unit),184 W 17TH St,Bayonne,NJ,07002,869000,6,4.0,Bayonne,,,,14,,,Active,,,https://www.redfin.com/NJ/Bayonne/184-W-17th-St-07002/home/36471223,HCMLS,250005606,N,Y,40.6639495,-74.129274
MLS Listing,,Single Family Residential,323 Gill Ln Unit 5B,Iselin,NJ,08830,297000,1,1.0,Iselin,,,,14,,451,Active,,,https://www.redfin.com/NJ/Iselin/323-Gill-Ln-08830/unit-5B/home/37002924,CJMLS,2510840R,N,Y,40.5620099,-74.3141039
MLS Listing,,Multi-Family (2-4 Unit),361 Hawthorne Ave,Newark City,NJ,07112-3624,700000,6,5.0,Newark City,19998,2613,2004,14,35,,Active,,,https://www.redfin.com/NJ/Newark/361-Hawthorne-Ave-07112/home/191089554,GSMLS,3952559,N,Y,40.7180133,-74.2085432
MLS Listing,,Condo/Co-op,100 LEONARD St Unit 1L,Jersey City,NJ,07307-3107,400000,2,1.0,Jersey City (Heights),689,,,14,581,362,Active,,,https://www.redfin.com/NJ/Jersey-City/100-Leonard-St-07307/unit-1L/home/173784995,HCMLS,250005605,N,Y,40.7565612,-74.0476835
MLS Listing,,Condo/Co-op,1310 84th St Unit 1A,Brooklyn,NY,11228,588000,1,1.0,Brooklyn,706,,1987,14,833,,Active,,,https://www.redfin.com/NY/Brooklyn/1310-84th-St-11228/unit-1A/home/192824866,BNYMLS,490259,N,Y,40.6149687,-74.0126146
MLS Listing,,Single Family Residential,1 SISSON Ct,Bayonne,NJ,07002,635000,4,3.0,Bayonne,,,,14,,,Active,,,https://www.redfin.com/NJ/Bayonne/1-Sisson-Ct-07002/home/36472168,HCMLS,250005604,N,Y,40.6581804,-74.1216187
MLS Listing,,Condo/Co-op,4 BEACON Way #302,Jersey City,NJ,07304,549999,2,2.0,Jersey City (Journal Square),1264,,,14,435,1124,Active,,,https://www.redfin.com/NJ/Jersey-City/4-Beacon-Way-07304/unit-302/home/39918330,HCMLS,250005602,N,Y,40.7229017,-74.0640308
MLS Listing,,Multi-Family (2-4 Unit),428 56TH St,West New York,NJ,07093,675000,5,3.0,West New York,,,,14,,,Active,,,https://www.redfin.com/NJ/West-New-York/428-56th-St-07093/home/36638096,HCMLS,250005597,N,Y,40.7861134,-74.0171708
MLS Listing,,Townhouse,443 Home Ave,Staten Island,NY,10305,839000,5,2.0,Fort Wadsworth,1908,2500,1920,14,440,,Active,,,https://www.redfin.com/NY/Staten-Island/443-Home-Ave-10305/home/56110420,SIBORMLS,2501529,N,Y,40.6084624,-74.0653208
MLS Listing,,Condo/Co-op,9040 Fort Hamilton Pkwy Unit 3K,Brooklyn,NY,11209,490000,2,1.0,Brooklyn,996,,1955,14,492,,Active,,,https://www.redfin.com/NY/Brooklyn/9040-Fort-Hamilton-Pkwy-11209/unit-3K/home/40651469,BNYMLS,490264,N,Y,40.6176128,-74.0273604
MLS Listing,,Multi-Family (2-4 Unit),134 Ripley Pl,Elizabeth City,NJ,07206-2143,749000,6,3.0,Elizabeth City,2250,2178,1900,14,333,,Active,,,https://www.redfin.com/NJ/Elizabethport/134-Ripley-Pl-07206/home/37837454,GSMLS,3952535,N,Y,40.653754,-74.180395
MLS Listing,,Multi-Family (2-4 Unit),76 Vincent St,Newark City,NJ,07105-4376,949000,8,4.0,Newark City,39996,2613,1902,14,24,,Active,,,https://www.redfin.com/NJ/Newark/76-Vincent-St-07105/home/36269226,GSMLS,3952531,N,Y,40.7298213,-74.1365824
MLS Listing,,Multi-Family (2-4 Unit),732 18Th Ave #3,Irvington Twp.,NJ,07111-3713,684999,8,3.0,Irvington Twp.,29997,3484,1956,14,23,,Active,,,https://www.redfin.com/NJ/Irvington/732-18th-Ave-07111/unit-3/home/195134593,GSMLS,3952533,N,Y,40.7354983,-74.217296
MLS Listing,,Single Family Residential,48 Studio Ln,Staten Island,NY,10304,365000,2,2.0,Clifton,910,1104,1998,14,401,115,Active,,,https://www.redfin.com/NY/Staten-Island/48-Studio-Ln-10304/home/56040115,SIBORMLS,2501525,N,Y,40.6137634,-74.0794766
MLS Listing,,Condo/Co-op,358 3RD St Unit 3R,Hoboken,NJ,07030,439000,1,1.0,Hoboken,454,,,14,967,610,Active,,,https://www.redfin.com/NJ/Hoboken/358-3rd-St-07030/unit-3R/home/36434333,HCMLS,250005589,N,Y,40.7409593,-74.0351666
MLS Listing,,Condo/Co-op,310 Passaic Ave #305,Harrison,NJ,07029,349000,2,1.0,Harrison,,,,14,,260,Active,,,https://www.redfin.com/NJ/Harrison/310-Passaic-Ave-07029/unit-305/home/195134209,NJMLS,25009272,N,Y,40.7483245,-74.1642734
MLS Listing,,Multi-Family (2-4 Unit),1442 45TH St,North Bergen,NJ,07047,849000,7,2.0,North Bergen,,,,14,,,Active,,,https://www.redfin.com/NJ/North-Bergen/1442-45th-St-07047/home/36597037,HCMLS,250005586,N,Y,40.7830538,-74.0299016
MLS Listing,,Condo/Co-op,1115 WILLOW Ave #109,Hoboken,NJ,07030,629900,2,1.0,Hoboken,775,,,14,813,523,Active,,,https://www.redfin.com/NJ/Hoboken/1115-Willow-Ave-07030/unit-1-09/home/36496521,HCMLS,250005588,N,Y,40.7511726,-74.0302184
MLS Listing,,Single Family Residential,51 Cromwell Cir,Staten Island,NY,10304,2599000,5,5.0,Todt Hill,4320,18584,1980,14,602,,Active,,,https://www.redfin.com/NY/Staten-Island/51-Cromwell-Cir-10304/home/56060377,SIBORMLS,2501524,N,Y,40.59019,-74.108928
MLS Listing,,Multi-Family (2-4 Unit),1374 Lambert St,Rahway City,NJ,07065-1930,649000,4,3.0,Rahway City,19998,4356,1965,14,32,,Active,,,https://www.redfin.com/NJ/Rahway/1374-Lambert-St-07065/home/38009835,GSMLS,3952517,N,Y,40.6166757,-74.2926827
MLS Listing,,Single Family Residential,20 Cliff St Unit 3r,Staten Island,NY,10305,175000,0,1.0,Shore Acres,617,617,1964,14,284,800,Active,,,https://www.redfin.com/NY/Staten-Island/20-Cliff-St-10305/unit-3R/home/77417705,SIBORMLS,2501441,N,Y,40.6109595,-74.060351
MLS Listing,,Single Family Residential,269 College Ave,Staten Island,NY,10314,1299900,5,3.5,Westerleigh,2713,7200,1905,14,479,,Active,,,https://www.redfin.com/NY/Staten-Island/269-College-Ave-10314/home/56045771,SIBORMLS,2501523,N,Y,40.6213839,-74.1295709
MLS Listing,,Condo/Co-op,106 DUNCAN Ave Unit 3L,Jersey City,NJ,07306,425000,2,2.0,Jersey City (Journal Square),725,,,14,586,,Active,,,https://www.redfin.com/NJ/Jersey-City/106-Duncan-Ave-07306/unit-3L/home/148145289,HCMLS,250005582,N,Y,40.7258868,-74.0743712
MLS Listing,,Condo/Co-op,135 GARDEN St #4,Hoboken,NJ,07030,655000,2,1.0,Hoboken,835,,,14,784,429,Active,,,https://www.redfin.com/NJ/Hoboken/135-Garden-St-07030/unit-4/home/36499423,HCMLS,250005581,N,Y,40.7386838,-74.0319057
MLS Listing,,Townhouse,832 N Stiles St,Linden City,NJ,07036-4032,490000,2,2.0,Linden City,,1306,,14,,,Active,,,https://www.redfin.com/NJ/Linden/832-N-Stiles-St-07036/home/37940380,GSMLS,3952502,N,Y,40.628309,-74.2708985
MLS Listing,,Multi-Family (2-4 Unit),33 N 9Th St,Newark City,NJ,07107-1137,499900,6,4.0,Newark City,29997,3484,,14,17,,Active,,,https://www.redfin.com/NJ/Newark/33-N-9th-St-07107/home/36261450,GSMLS,3952498,N,Y,40.7566883,-74.191779
MLS Listing,,Single Family Residential,15 Heather Ln,Morris Twp.,NJ,07960-2843,900000,4,3.5,Wheatsheaf,3211,19166,1984,14,280,,Active,,,https://www.redfin.com/NJ/Morristown/15-Heather-Ln-07960/home/37245033,GSMLS,3952485,N,Y,40.8024397,-74.4990437
MLS Listing,,Single Family Residential,188 Wiley Ave,Plainfield City,NJ,07062,599900,4,3.0,Residential,,3920,,14,,,Active,,,https://www.redfin.com/NJ/Plainfield/188-Wiley-Ave-07062/home/37984018,GSMLS,3952475,N,Y,40.6390731,-74.4039867
MLS Listing,,Condo/Co-op,297 PAVONIA Ave Unit 2B,Jersey City,NJ,07302,749000,2,2.0,Jersey City (Downtown),964,2500,1880,14,777,495,Active,,,https://www.redfin.com/NJ/Jersey-City/297-Pavonia-Ave-07302/unit-2B/home/101706286,HCMLS,250005579,N,Y,40.7276705,-74.047298
MLS Listing,,Single Family Residential,1135 Dorsey Pl,Plainfield City,NJ,07062-2207,615000,4,1.5,Netherwood Heights,,7405,1926,14,,,Active,,,https://www.redfin.com/NJ/Plainfield/1135-Dorsey-Pl-07062/home/195033172,GSMLS,3952471,N,Y,40.6247564,-74.3949739
MLS Listing,,Condo/Co-op,1404 Edison Glen Ter #1404,Edison Twp.,NJ,08837-2939,569000,4,3.0,Edison,,,1992,14,,332,Active,,,https://www.redfin.com/NJ/Edison/1404-Glen-Ter-08837/unit-1404/home/36792460,GSMLS,3952469,N,Y,40.5201591,-74.3607246
MLS Listing,,Single Family Residential,626 Meadow St,Roselle Boro,NJ,07203-1514,419000,3,1.0,Roselle Boro,,3484,1910,14,,,Active,,,https://www.redfin.com/NJ/Roselle/626-Meadow-St-07203/home/38018770,GSMLS,3952470,N,Y,40.6603681,-74.2466063
MLS Listing,,Single Family Residential,343 Morris St,Long Hill Twp.,NJ,07980-1304,455000,2,1.5,Long Hill Twp.,,10018,1920,14,,,Active,,,https://www.redfin.com/NJ/Stirling/343-Morris-St-07980/home/37301236,GSMLS,3952431,N,Y,40.6698114,-74.4966134
MLS Listing,,Single Family Residential,1301 Putnam Ave,Plainfield City,NJ,07060-1923,665000,8,3.0,Plainfield City,,12196,1916,14,,,Active,,,https://www.redfin.com/NJ/Plainfield/1301-Putnam-Ave-07060/home/37990345,GSMLS,3952466,N,Y,40.6201416,-74.4057299
MLS Listing,,Single Family Residential,371 Pelton Ave,Staten Island,NY,10310,625000,2,1.5,West Brighton,1304,2913,1925,14,479,,Active,,,https://www.redfin.com/NY/Staten-Island/371-Pelton-Ave-10310/home/56058409,SIBORMLS,2501270,N,Y,40.6336041,-74.1097891
MLS Listing,,Single Family Residential,55 Whitlock Ave,Staten Island,NY,10304,2999000,6,6.0,Todt Hill,5490,15900,1991,14,546,,Active,,,https://www.redfin.com/NY/Staten-Island/55-Whitlock-Ave-10304/home/56015338,SIBORMLS,2501443,N,Y,40.594554,-74.11119
MLS Listing,,Single Family Residential,5204 Stonehedge Rd,Edison,NJ,08820,530000,2,2.0,Edison,1023,,1986,14,518,341,Active,,,https://www.redfin.com/NJ/Edison/5204-Stonehedge-Rd-08820/home/195130320,CJMLS,2510799R,N,Y,40.58836,-74.3669819
MLS Listing,,Condo/Co-op,10 Bay Street Lndg Unit 1A,Staten Island,NY,10301,539000,2,1.5,Staten Island,1250,,1982,15,431,,Active,April-13-2025 12:00 PM,April-13-2025 01:30 PM,https://www.redfin.com/NY/Staten-Island/10-Bay-Street-Lndg-10301/unit-1A/home/77404264,OneKey® MLS as Distributed by MLS Grid,839248,N,Y,40.638118,-74.073964
MLS Listing,,Single Family Residential,283 Ocean Ter,Staten Island,NY,10301,2500000,5,8.0,Todt Hill,8259,33640,1935,15,303,,Active,,,https://www.redfin.com/NY/Staten-Island/283-Ocean-Ter-10301/home/56049367,SIBORMLS,2501520,N,Y,40.603996,-74.11092
MLS Listing,,Condo/Co-op,1332 HARMON COVE TOWER #1332,Secaucus,NJ,07094,449900,2,2.0,Secaucus,1525,,,15,295,,Active,,,https://www.redfin.com/NJ/Secaucus/1332-Harmon-Cove-Tower-07094/home/36606367,HCMLS,250005577,N,Y,40.7859523,-74.0759323
MLS Listing,,Single Family Residential,1247-1249 Lenox Ave,Plainfield,NJ,07060,550000,3,2.0,Plainfield,,8002,,15,,,Active,,,https://www.redfin.com/NJ/Plainfield/1247-Lenox-Ave-07060/home/37992574,NJMLS,25009151,N,Y,40.6056209,-74.4062411
MLS Listing,,Single Family Residential,1247 Lenox Ave #49,Plainfield,NJ,07060,550000,3,2.0,Plainfield,1394,8002,1926,15,395,,Active,,,https://www.redfin.com/NJ/Plainfield/1247-Lenox-Ave-07060/unit-49/home/195131031,CJMLS,2510777R,N,Y,40.6056209,-74.4062411
MLS Listing,,Multi-Family (2-4 Unit),86 SANFORD Pl,Jersey City,NJ,07307,1200000,5,3.0,Jersey City (Heights),,,,15,,,Active,,,https://www.redfin.com/NJ/Jersey-City/86-Sanford-Pl-07307/home/36522097,HCMLS,250005571,N,Y,40.7462412,-74.0560024
MLS Listing,,Single Family Residential,7 Leora Dr,Edison,NJ,08817,1680000,5,5.5,Edison,4200,9994,,15,400,,Active,,,https://www.redfin.com/NJ/Edison/7-Leora-DR-08817/home/195130809,CJMLS,2510753R,N,Y,40.539556,-74.380928
MLS Listing,,Multi-Family (2-4 Unit),257 Ellis Ave,Irvington Twp.,NJ,07111-4431,650000,10,4.0,Irvington Twp.,3586,3049,1913,15,181,,Active,,,https://www.redfin.com/NJ/Irvington/257-Ellis-Ave-07111/home/36173785,GSMLS,3952297,N,Y,40.7324247,-74.2169255
MLS Listing,,Single Family Residential,386 Elm St,Long Hill Twp.,NJ,07980-1107,699000,4,3.0,Stirling,1713,6534,1925,15,408,,Active,,,https://www.redfin.com/NJ/Stirling/386-Elm-St-07980/home/37393446,GSMLS,3950343,N,Y,40.6748996,-74.4989892
MLS Listing,,Single Family Residential,492 Meisel Ave,Springfield Twp.,NJ,07081-2726,599000,4,2.0,Springfield Twp.,,7840,1948,15,,,Active,,,https://www.redfin.com/NJ/Springfield/492-Meisel-Ave-07081/home/38078965,GSMLS,3952436,N,Y,40.6962468,-74.3182801
MLS Listing,,Single Family Residential,717 E 6th St,Plainfield City,NJ,07062-1801,420000,3,1.5,Plainfield City,1092,3920,1931,15,385,,Active,,,https://www.redfin.com/NJ/Plainfield/717-E-6th-St-07062/home/37988914,GSMLS,3944598,N,Y,40.624485,-74.4081368
MLS Listing,,Multi-Family (2-4 Unit),173 W Main St,Rahway City,NJ,07065-4105,545000,5,2.0,Rahway City,,4356,1920,15,,,Active,,,https://www.redfin.com/NJ/Rahway/173-W-Main-St-07065/home/38008681,GSMLS,3934264,N,Y,40.6109335,-74.2759156
MLS Listing,,Single Family Residential,220 Douglas Rd,Staten Island,NY,10304,1980000,5,6.0,Emerson Hill,5301,24160,1970,15,374,,Active,,,https://www.redfin.com/NY/Staten-Island/220-Douglas-Rd-10304/home/56050967,SIBORMLS,2501518,N,Y,40.6071248,-74.0970755
MLS Listing,,Multi-Family (2-4 Unit),317 7TH St,Union City,NJ,07087,649000,7,4.0,Union City,,,,15,,,Active,,,https://www.redfin.com/NJ/Union-City/317-7th-St-07087/home/36614869,HCMLS,250005546,N,Y,40.7557916,-74.0377609
MLS Listing,,Single Family Residential,41 Park Ave,Carteret Boro,NJ,07008-1341,479900,3,2.0,Carteret Boro,,4791,,15,,,Active,,,https://www.redfin.com/NJ/Carteret/41-Park-Ave-07008/home/36761164,GSMLS,3951492,N,Y,40.5951355,-74.2474056
MLS Listing,,Single Family Residential,865 Magie Ave,Elizabeth City,NJ,07208,555000,4,2.5,Elmora Hills,,,1955,15,,,Active,,,https://www.redfin.com/NJ/Elizabeth/865-Magie-Ave-07208/home/37883228,GSMLS,3951604,N,Y,40.6720274,-74.2394916
MLS Listing,,Single Family Residential,1222 Clinton Pl,Plainfield City,NJ,07063-1221,549900,6,4.0,Plainfield City,,,1980,15,,,Active,,,https://www.redfin.com/NJ/Plainfield/1222-Clinton-Pl-07063/home/37970345,GSMLS,3951518,N,Y,40.6007484,-74.4424185
MLS Listing,,Condo/Co-op,35 E Price St #5,Linden City,NJ,07036-3015,235000,1,1.0,Linrose Manor,,435,1998,15,,249,Active,,,https://www.redfin.com/NJ/Linden/35-E-Price-St-07036/unit-5/home/37931619,GSMLS,3951480,N,Y,40.6323145,-74.2529172
MLS Listing,,Single Family Residential,1 Cypress Ter,Springfield Twp.,NJ,07081-2401,1200000,4,3.5,Woodside,,13068,1960,15,,,Active,,,https://www.redfin.com/NJ/Springfield/1-Cypress-Ter-07081/home/38078823,GSMLS,3952036,N,Y,40.6990396,-74.3114501
MLS Listing,,Single Family Residential,36 Sherwood Rd,Springfield Twp.,NJ,07081-2521,679900,3,2.0,Springfield Twp.,,7840,1949,15,,,Active,,,https://www.redfin.com/NJ/Springfield/36-Sherwood-Rd-07081/home/38080767,GSMLS,3951507,N,Y,40.6975156,-74.3268119
MLS Listing,,Single Family Residential,249 14th Ave,Newark City,NJ,07103-1958,450000,3,1.5,Newark City,,2178,2003,15,,,Active,,,https://www.redfin.com/NJ/Newark/249-14th-Ave-07103/home/36234147,GSMLS,3951122,N,Y,40.7396918,-74.2026833
MLS Listing,,Single Family Residential,27 Isabella Ave,Newark City,NJ,07106-2026,315000,4,1.5,Newark City,1830,4791,1902,16,172,,Active,,,https://www.redfin.com/NJ/Newark/27-Isabella-Ave-07106/home/195129279,GSMLS,3952405,N,Y,40.7442059,-74.2203185
MLS Listing,,Multi-Family (2-4 Unit),231 Clark Pl #2,Elizabeth City,NJ,07206-2016,629000,7,3.0,Elizabeth City,,2613,1900,16,,,Active,,,https://www.redfin.com/NJ/Elizabeth/231-Clark-Pl-07206/unit-2/home/193620092,GSMLS,3952390,N,Y,40.6549363,-74.183205
MLS Listing,,Condo/Co-op,185 Marine Ave Unit 2C,Brooklyn,NY,11209,325000,1,1.0,Brooklyn,650,,1927,16,500,,Active,,,https://www.redfin.com/NY/Brooklyn/185-Marine-Ave-11209/unit-2C/home/40921083,OneKey® MLS as Distributed by MLS Grid,839042,N,Y,40.615448,-74.0346307
MLS Listing,,Single Family Residential,43 Lockman Ave,Staten Island,NY,10303,639999,3,1.5,Mariners Harbor,1200,2408,1920,16,533,,Active,,,https://www.redfin.com/NY/Staten-Island/43-Lockman-Ave-10303/home/56015589,SIBORMLS,2501513,N,Y,40.6363114,-74.1611428
MLS Listing,,Single Family Residential,17 Gallo Way,Edison,NJ,08820,1299000,5,3.0,Edison,3736,,1990,16,348,,Active,,,https://www.redfin.com/NJ/Edison/17-Gallo-Way-08820/home/36799667,CJMLS,2510788R,N,Y,40.5852462,-74.3705624
MLS Listing,,Single Family Residential,285 3RD St,Jersey City,NJ,07302,939900,3,3.0,Jersey City (Downtown),,,,16,,,Active,,,https://www.redfin.com/NJ/Jersey-City/285-3rd-St-07302/home/36511514,HCMLS,250005515,N,Y,40.723329,-74.047021
MLS Listing,,Vacant Land,39-41 LORD Ave,Bayonne,NJ,07002,825000,,,Bayonne,,,,16,,,Active,,,https://www.redfin.com/NJ/Bayonne/39-41-Lord-Ave-07002/home/194422834,HCMLS,250005512,N,Y,40.6468922,-74.1272099
MLS Listing,,Condo/Co-op,1 Carriage City Plz #509,Rahway City,NJ,07065,475000,2,2.0,Skyview,1216,,2008,16,391,413,Active,April-13-2025 11:00 AM,April-13-2025 01:00 PM,https://www.redfin.com/NJ/Rahway/1-Carriage-City-Plz-07065/unit-509/home/37767271,GSMLS,3952369,N,Y,40.6061069,-74.2754726
MLS Listing,,Condo/Co-op,120 Devon Loop #6,Staten Island,NY,10314,499000,2,1.5,New Springville,914,914,1984,16,546,424,Active,,,https://www.redfin.com/NY/Staten-Island/120-Devon-Loop-10314/unit-6/home/56125459,SIBORMLS,2501510,N,Y,40.5811164,-74.1599115
MLS Listing,,Single Family Residential,279 Gertrude St,Hillside Twp.,NJ,07205-2110,649000,3,3.5,Hurden Looker,3000,2613,2018,16,216,,Active,,,https://www.redfin.com/NJ/Hillside/279-Gertrude-St-07205/home/37912310,GSMLS,3952363,N,Y,40.6980097,-74.2317419
MLS Listing,,Vacant Land,17-19 BERKLEY Pl,Jersey City,NJ,07306,2900000,,,Jersey City (Heights),,5000,,16,,,Active,,,https://www.redfin.com/NJ/Jersey-City/17-Berkeley-Pl-07306/home/36429223,HCMLS,250005502,N,Y,40.7369155,-74.065532
MLS Listing,,Multi-Family (2-4 Unit),589 Garfield Ave,Jersey City,NJ,07305,499000,4,2.0,Jersey City,,2278,,16,,,Active,,,https://www.redfin.com/NJ/Jersey-City/589-Garfield-Ave-07305/home/36542056,NJMLS,25000940,N,Y,40.7010223,-74.0792012
MLS Listing,,Single Family Residential,12 BLUE JAY Ct,Warren Twp.,NJ,07059-6759,1500000,4,4.5,Warren Twp.,4272,46609,1985,16,351,,Active,,,https://www.redfin.com/NJ/Warren/12-Blue-Jay-Ct-07059/home/37985298,GSMLS,3952356,N,Y,40.6385857,-74.5553441
MLS Listing,,Townhouse,109 Donato Cir #109,Scotch Plains Twp.,NJ,07076-1068,525000,2,2.5,The Reserve,,,2004,16,,290,Active,,,https://www.redfin.com/NJ/Scotch-Plains/109-Donato-Cir-07076/unit-109/home/148316996,GSMLS,3952353,N,Y,40.657323,-74.401423
MLS Listing,,Multi-Family (2-4 Unit),122 Page Ave,Lyndhurst,NJ,07071,777777,4,3.0,Lyndhurst,,5110,,16,,,Active,,,https://www.redfin.com/NJ/Lyndhurst/122-Page-Ave-07071/home/35779159,NJMLS,25009165,N,Y,40.8116882,-74.1354623
MLS Listing,,Single Family Residential,117 Linden Ave,Irvington,NJ,07111,425000,3,2.0,Irvington,,2496,,16,,,Active,,,https://www.redfin.com/NJ/Irvington/117-Linden-Ave-07111/home/36172068,NJMLS,25009032,N,Y,40.7307005,-74.2269264
MLS Listing,,Condo/Co-op,68 MORRIS St #1,Jersey City,NJ,07302,850000,2,2.0,Jersey City (Downtown),1100,,,16,773,,Active,,,https://www.redfin.com/NJ/Jersey-City/68-Morris-St-07302/unit-1/home/36504465,HCMLS,250005498,N,Y,40.7138732,-74.0367317
MLS Listing,,Single Family Residential,2 BIENKO Ct,Clark Twp.,NJ,07066-2700,1300000,6,4.0,Clark Twp.,4025,22651,2001,16,323,,Active,,,https://www.redfin.com/NJ/Clark/2-Bienko-Ct-07066/home/38201447,GSMLS,3952346,N,Y,40.6128614,-74.3333818
MLS Listing,,Condo/Co-op,227 CHRISTOPHER COLUMBUS Dr Unit 208B,Jersey City,NJ,07302,349000,,1.0,Jersey City (Downtown),494,,,16,706,510,Active,,,https://www.redfin.com/NJ/Jersey-City/227-Columbus-Dr-07302/unit-208B/home/101857675,HCMLS,250005496,N,Y,40.7212979,-74.0493837
MLS Listing,,Single Family Residential,321 WEST Ln,Clark Twp.,NJ,07066-1637,629900,4,1.5,Valley Road,,7840,1956,16,,,Active,,,https://www.redfin.com/NJ/Clark/321-West-Ln-07066/home/37803992,GSMLS,3933160,N,Y,40.6284423,-74.2914009
MLS Listing,,Multi-Family (2-4 Unit),92 WARNER Ave,Jersey City,NJ,07305,750000,7,2.0,Jersey City (Greenville),,,,16,,,Active,,,https://www.redfin.com/NJ/Jersey-City/92-Warner-Ave-07305/home/36533286,HCMLS,250005492,N,Y,40.7007292,-74.0893197
MLS Listing,,Single Family Residential,40 Weequahic Ave,Newark City,NJ,07112-2402,529000,4,2.0,Newark City,,4791,1915,16,,,Active,,,https://www.redfin.com/NJ/Newark/40-Weequahic-Ave-07112/home/36286585,GSMLS,3952032,N,Y,40.705844,-74.208353
MLS Listing,,Single Family Residential,820 Townley Ave,Union Twp.,NJ,07083-7524,699999,4,3.0,Union Twp.,,6098,1936,16,,,Active,,,https://www.redfin.com/NJ/Union/820-Townley-Ave-07083/home/38114672,GSMLS,3952125,N,Y,40.6847721,-74.2487454
MLS Listing,,Single Family Residential,165 Morristown Rd,Elizabeth City,NJ,07208-1315,549999,2,2.5,Elizabeth City,,5227,1920,16,,,Active,,,https://www.redfin.com/NJ/Elizabeth/165-Morristown-Rd-07208/home/37883629,GSMLS,3951840,N,Y,40.6681322,-74.2369099
MLS Listing,,Single Family Residential,9 Rhoda Ter,Roselle Park Boro,NJ,07204-2165,615000,3,1.5,Roselle Park Boro,,6969,,16,,,Active,,,https://www.redfin.com/NJ/Roselle-Park/9-Rhoda-Ter-07204/home/38045391,GSMLS,3950390,N,Y,40.6679402,-74.2508339
MLS Listing,,Single Family Residential,1157 Martine Ave,Plainfield City,NJ,07060-2634,849000,6,3.5,Hillside,,15245,1926,16,,,Active,,,https://www.redfin.com/NJ/Plainfield/1157-Martine-Ave-07060/home/193189347,GSMLS,3951926,N,Y,40.611852,-74.4071158
MLS Listing,,Single Family Residential,69 Pearl St,North Plainfield Boro,NJ,07060-4853,515000,3,1.5,North Plainfield Boro,,3484,1929,16,,,Active,,,https://www.redfin.com/NJ/North-Plainfield/69-Pearl-St-07060/home/37948206,GSMLS,3951612,N,Y,40.6218227,-74.4241353
MLS Listing,,Single Family Residential,134 Belleville Ave,Belleville Twp.,NJ,07109-2408,599000,2,2.0,Belleville Twp.,,3484,1907,16,,,Active,,,https://www.redfin.com/NJ/Belleville/134-Belleville-Ave-07109/home/36082335,GSMLS,3951477,N,Y,40.7865349,-74.1551666
MLS Listing,,Single Family Residential,813 Monroe Ave,Plainfield City,NJ,07063-1527,429000,3,2.5,Plainfield City,1020,7405,1951,16,421,,Active,,,https://www.redfin.com/NJ/Plainfield/813-Monroe-Ave-07063/home/37985234,GSMLS,3952120,N,Y,40.5999621,-74.4305105
MLS Listing,,Single Family Residential,821 George St,Plainfield City,NJ,07062-1609,329900,2,2.0,East End,,,1921,16,,,Active,,,https://www.redfin.com/NJ/Plainfield/821-George-St-07062/home/37979385,GSMLS,3951341,N,Y,40.6289607,-74.4098867
MLS Listing,,Multi-Family (2-4 Unit),282 Weequahic Ave,Newark City,NJ,07112-1437,575000,3,2.0,Newark City,,3920,1923,16,,,Active,,,https://www.redfin.com/NJ/Newark/282-Weequahic-Ave-07112/home/36290224,GSMLS,3951875,N,Y,40.7111271,-74.2179055
MLS Listing,,Single Family Residential,55 Inverness Dr,Edison,NJ,08820,625000,3,2.5,Edison,1587,,1998,16,394,175,Active,,,https://www.redfin.com/NJ/Edison/55-Inverness-Dr-08820/home/180024248,CJMLS,2510374R,N,Y,40.5561199,-74.3977431
MLS Listing,,Single Family Residential,319 Fairview Ave,Middlesex,NJ,08846,545000,3,1.5,Middlesex,,5001,1944,16,,,Active,,,https://www.redfin.com/NJ/Middlesex/319-Fairview-Ave-08846/home/36831385,CJMLS,2510577R,N,Y,40.567942,-74.5111496
MLS Listing,,Single Family Residential,55 Home St,Metuchen,NJ,08840,1100000,5,3.0,Metuchen,,8050,1850,16,,,Active,,,https://www.redfin.com/NJ/Metuchen/55-Home-St-08840/home/36827903,CJMLS,2509926R,N,Y,40.5392768,-74.3579199
MLS Listing,,Single Family Residential,15 Stephenville Pkwy,Edison,NJ,08820,2275000,5,4.5,Edison,4334,21000,2025,17,525,,Active,,,https://www.redfin.com/NJ/Edison/15-Stephenville-Pkwy-08820/home/36813398,CJMLS,2510575R,N,Y,40.5657255,-74.3802643
MLS Listing,,Condo/Co-op,88 MORGAN St #2407,Jersey City,NJ,07302,779000,1,1.0,Jersey City (Downtown),792,,,17,984,735,Active,,,https://www.redfin.com/NJ/Jersey-City/88-Morgan-St-07302/unit-2407/home/39921030,HCMLS,250005489,N,Y,40.7197157,-74.0363161
MLS Listing,,Multi-Family (2-4 Unit),63 Warwick St,Newark,NJ,07105,825000,8,4.0,Newark,,2252,,17,,,Active,,,https://www.redfin.com/NJ/Newark/63-Warwick-St-07105/home/36253478,NJMLS,25009139,N,Y,40.7254924,-74.1635625
MLS Listing,,Single Family Residential,20 Glen Alpin Rd,Harding Twp.,NJ,07960-6724,715000,3,2.0,Harding Twp.,1644,22651,1956,17,435,,Active,,,https://www.redfin.com/NJ/Morristown/20-Glen-Alpin-Rd-07960/home/37186765,GSMLS,3952310,N,Y,40.7463815,-74.5007457
MLS Listing,,Condo/Co-op,1225 JOHN F KENNEDY Blvd Unit 8A,Bayonne,NJ,07002,290000,2,1.0,Bayonne,850,,,17,341,1052,Active,,,https://www.redfin.com/NJ/Bayonne/1225-John-F-Kennedy-Blvd-07002/unit-8A/home/59146452,HCMLS,250005484,N,Y,40.6891574,-74.1064235
MLS Listing,,Single Family Residential,117 Heller Pkwy,Newark City,NJ,07104-2213,799000,5,2.5,Forest Hill,2877,6534,1927,17,278,,Active,,,https://www.redfin.com/NJ/Newark/117-Heller-Pkwy-07104/home/36248541,GSMLS,3952305,N,Y,40.7771059,-74.1698619
MLS Listing,,Townhouse,17B Troy Dr Unit B,Springfield Twp.,NJ,07081-2002,425000,2,2.5,Troy Village,,9147,1955,17,,663,Active,,,https://www.redfin.com/NJ/Springfield/17B-Troy-Dr-07081/unit-B/home/195117834,GSMLS,3952304,N,Y,40.7129978,-74.328613
MLS Listing,,Condo/Co-op,24 ROMAINE Ave #1,Jersey City,NJ,07306,650000,2,1.5,Jersey City (Journal Square),837,,,17,777,,Active,,,https://www.redfin.com/NJ/Jersey-City/24-Romaine-Ave-07306/unit-1/home/192910565,HCMLS,250005476,N,Y,40.7305006,-74.0702617
MLS Listing,,Condo/Co-op,1026 WASHINGTON St Unit 2F,Hoboken,NJ,07030,455000,1,1.0,Hoboken,474,,,17,960,253,Active,,,https://www.redfin.com/NJ/Hoboken/1026-Washington-St-07030/unit-2F/home/36643981,HCMLS,250005430,N,Y,40.7495234,-74.0275258
MLS Listing,,Single Family Residential,26 Shrewsbury Dr,Livingston,NJ,07039,2099000,6,5.5,Livingston,,19572,,17,,,Active,,,https://www.redfin.com/NJ/Livingston/26-Shrewsbury-Dr-07039/home/36189448,NJMLS,25009129,N,Y,40.8005953,-74.2969348
MLS Listing,,Single Family Residential,407 Davis Ave,Kearny,NJ,07032,474888,3,1.5,Kearny,,2374,,17,,,Active,,,https://www.redfin.com/NJ/Kearny/407-Davis-Ave-07032/home/36588195,NJMLS,25009131,N,Y,40.7665039,-74.1416132
MLS Listing,,Single Family Residential,42-44 Pomona Ave,Newark,NJ,07112,599000,3,3.0,Newark,,5001,,17,,,Active,,,https://www.redfin.com/NJ/Newark/42-44-Pomona-Ave-07112/home/195033873,NJMLS,25009125,N,Y,40.705368,-74.209116
MLS Listing,,Multi-Family (2-4 Unit),99 W 50TH St,Bayonne,NJ,07002,839000,7,3.0,Bayonne,,,,17,,,Active,,,https://www.redfin.com/NJ/Bayonne/99-W-50th-St-07002/home/36461781,HCMLS,250005473,N,Y,40.6849347,-74.1062573
MLS Listing,,Multi-Family (2-4 Unit),300 Monroe Ave #4,Plainfield City,NJ,07063-1347,699000,13,4.5,Plainfield City,3045,,1925,17,230,,Active,,,https://www.redfin.com/NJ/Plainfield/300-Monroe-Ave-07063/unit-4/home/192812855,GSMLS,3952295,N,Y,40.6039987,-74.4381592
MLS Listing,,Single Family Residential,143 Vosseller Ave,Bound Brook,NJ,08805,200000,0,,Bound Brook,,2680,,17,,,Active,,,https://www.redfin.com/NJ/Bound-Brook/143-Vosseller-Ave-08805/home/195116010,CJMLS,2510756R,N,Y,40.5626936,-74.5406753
MLS Listing,,Condo/Co-op,443 BERGEN Ave Unit A1,Jersey City,NJ,07304,469000,3,2.0,Jersey City (Bergen-Lafayette),1150,,,17,408,177,Active,,,https://www.redfin.com/NJ/Jersey-City/443-Bergen-Ave-07304/unit-A1/home/195115665,HCMLS,250005471,N,Y,40.7168891,-74.0781972
MLS Listing,,Other,130 1st St,Elizabeth,NJ,07206,1195000,,,Elizabeth,,,,17,,,Active,,,https://www.redfin.com/NJ/Elizabethport/130-1st-St-07206/home/190486767,NJMLS,25008909,N,Y,40.6488879,-74.1866333
MLS Listing,,Condo/Co-op,443 BERGEN Ave Unit C3,Jersey City,NJ,07304,489000,2,2.0,Jersey City (Bergen-Lafayette),1125,,,17,435,173,Active,,,https://www.redfin.com/NJ/Jersey-City/443-Bergen-Ave-07304/unit-C3/home/195115358,HCMLS,250005468,N,Y,40.7168891,-74.0781972
MLS Listing,,Condo/Co-op,113 Liddle Ave,Edison,NJ,08837,260000,1,1.0,CLARA BARTON,576,,2008,17,451,312,Active,,,https://www.redfin.com/NJ/Edison/113-Liddle-Ave-08837/home/191563654,BRIGHT MLS,NJMX2008828,N,Y,40.5312089,-74.33762
MLS Listing,,Single Family Residential,14 Garden St,Cranford Twp.,NJ,07016-2504,1499000,5,4.5,North Side,,7840,,17,,,Active,,,https://www.redfin.com/NJ/Cranford/14-Garden-St-07016/home/37817822,GSMLS,3952278,N,Y,40.6624999,-74.2972689
MLS Listing,,Condo/Co-op,90 MONROE St #2,Hoboken,NJ,07030,2990000,5,4.5,Hoboken,3030,,,17,987,,Active,,,https://www.redfin.com/NJ/Hoboken/90-Monroe-St-07030/unit-2/home/36487791,HCMLS,250005467,N,Y,40.7387471,-74.0404409
MLS Listing,,Townhouse,34 Newton St,Staten Island,NY,10312,1188888,6,5.0,S.E. Annadale,2256,3840,2024,17,527,,Active,,,https://www.redfin.com/NY/Staten-Island/34-Newton-St-10312/home/169593376,SIBORMLS,2501508,N,Y,40.5278208,-74.1726302
MLS Listing,,Condo/Co-op,196 DELAWARE Ave #1,Jersey City,NJ,07306,699000,3,2.5,Jersey City (Journal Square),1385,,,17,505,,Active,,,https://www.redfin.com/NJ/Jersey-City/196-Delaware-Ave-07306/unit-1/home/185112665,HCMLS,250005464,N,Y,40.727543,-74.07688
MLS Listing,,Condo/Co-op,300 COMMUNIPAW Ave #002,Jersey City,NJ,07304,425000,1,1.0,Jersey City (Bergen-Lafayette),987,,,17,431,,Active,,,https://www.redfin.com/NJ/Jersey-City/300-Communipaw-Ave-07304/unit-2/home/39916813,HCMLS,250005462,N,Y,40.7092268,-74.0597199
MLS Listing,,Townhouse,37 Brewster St,Staten Island,NY,10304,680000,6,2.0,Tompkinsville,2120,2800,1899,17,321,,Active,,,https://www.redfin.com/NY/Staten-Island/37-Brewster-St-10304/home/56048522,SIBORMLS,2501506,N,Y,40.6327736,-74.0776439
MLS Listing,,Condo/Co-op,300 COMMUNIPAW Ave #011,Jersey City,NJ,07306,435000,1,1.0,Jersey City (Bergen-Lafayette),1016,,,17,428,433,Active,,,https://www.redfin.com/NJ/Jersey-City/300-Communipaw-Ave-07304/unit-11/home/39916889,HCMLS,250005459,N,Y,40.7092268,-74.0597199
MLS Listing,,Single Family Residential,113 Liddle Ave #113,Edison,NJ,08837,260000,1,1.0,Edison,576,,2008,17,451,312,Active,,,https://www.redfin.com/NJ/Edison/113-Liddle-Ave-08837/unit-113/home/36759293,MOMLS,22508034,N,Y,40.5312089,-74.33762
MLS Listing,,Condo/Co-op,85 Marrow St,Newark City,NJ,07103,339999,2,1.0,Society Hill,,,1995,17,,300,Active,,,https://www.redfin.com/NJ/Newark/85-Marrow-St-07103/home/194349179,GSMLS,3952261,N,Y,40.7418878,-74.1837607
MLS Listing,,Single Family Residential,645 OCEAN Ave,Jersey City,NJ,07305,550000,4,2.5,Jersey City (Bergen-Lafayette),,,,17,,,Active,,,https://www.redfin.com/NJ/Jersey-City/645-Ocean-Ave-07305/home/36576172,HCMLS,250005455,N,Y,40.7084757,-74.0773731
MLS Listing,,Condo/Co-op,48-50 W HAMILTON Pl #5,Jersey City,NJ,07302,1199999,3,2.0,Jersey City (Downtown),1250,,,17,960,479,Active,,,https://www.redfin.com/NJ/Jersey-City/48-50-W-Hamilton-Pl-07302/unit-5/home/195113630,HCMLS,250005449,N,Y,40.728331,-74.0462809
MLS Listing,,Single Family Residential,89 PROSPECT St,Jersey City,NJ,07307,1100000,3,3.0,Jersey City (Heights),,,,17,,,Active,,,https://www.redfin.com/NJ/Jersey-City/89-Prospect-St-07307/home/36517820,HCMLS,250005447,N,Y,40.7386654,-74.0512739
MLS Listing,,Single Family Residential,111 3rd St,Dunellen,NJ,08812,749900,5,3.0,Dunellen,3100,5001,2025,17,242,,Active,,,https://www.redfin.com/NJ/Dunellen/111-3rd-St-08812/home/164843966,CJMLS,2510742R,N,Y,40.5971893,-74.4654485
MLS Listing,,Single Family Residential,242 Hamilton Blvd,Piscataway,NJ,08854,589900,3,2.0,Piscataway,1514,8542,1959,17,390,,Active,,,https://www.redfin.com/NJ/Piscataway/242-Hamilton-Blvd-08854/home/36915653,CJMLS,2510740R,N,Y,40.5702546,-74.4635726
MLS Listing,,Townhouse,31 Wexford Dr,Mendham Boro,NJ,07945-2007,799000,3,2.5,Mendham Commons,,3920,1984,17,,811,Active,,,https://www.redfin.com/NJ/Mendham/31-Wexford-Dr-07945/home/37221284,GSMLS,3952247,N,Y,40.790946,-74.587981
MLS Listing,,Townhouse,214 Bishop St,Staten Island,NY,10306,1068000,5,3.0,Richmond Town,1984,4160,1970,17,538,,Active,,,https://www.redfin.com/NY/Staten-Island/214-Bishop-St-10306/home/56082478,SIBORMLS,2501504,N,Y,40.5742523,-74.1288476
MLS Listing,,Townhouse,41 Indian Run,Watchung Boro,NJ,07069-5473,775000,3,3.0,Stonegate,,8712,1980,17,,500,Active,,,https://www.redfin.com/NJ/Watchung/41-Indian-Run-07069/home/38015059,GSMLS,3952246,N,Y,40.663566,-74.430091
MLS Listing,,Condo/Co-op,380 Rector Pl Unit 15E,New York (manhattan),NY,10280,792000,1,1.0,New York (Manhattan),735,,1987,17,1078,2315,Active,,,https://www.redfin.com/NY/New-York/380-Rector-Pl-10280/unit-15E/home/45235203,OneKey® MLS as Distributed by MLS Grid,838689,N,Y,40.7092964,-74.0180405
MLS Listing,,Condo/Co-op,160 BRUNSWICK St #303,Jersey City,NJ,07302,885000,2,2.0,Jersey City (Downtown),1110,,,17,797,300,Active,,,https://www.redfin.com/NJ/Jersey-City/160-Brunswick-St-07302/unit-303/home/195112957,HCMLS,250005428,N,Y,40.7248901,-74.0504269
MLS Listing,,Multi-Family (2-4 Unit),148 19th St,Union City,NJ,07087,585000,5,3.0,Union City,1194,2613,1913,17,490,,Active,,,https://www.redfin.com/NJ/Union-City/148-19th-St-07087/home/36619431,MOMLS,22508005,N,Y,40.7621682,-74.0299116
MLS Listing,,Condo/Co-op,60 PARKWAY Dr Unit 10F,East Orange,NJ,07017,199000,1,1.0,East Orange,959,,,17,208,599,Active,,,https://www.redfin.com/NJ/East-Orange/60-Parkway-Dr-E-07017/unit-10F/home/36076541,HCMLS,250005426,N,Y,40.7692599,-74.2036133
MLS Listing,,Single Family Residential,49 Oakwood Ave,Bloomfield,NJ,07003,639999,3,2.0,Bloomfield,,3960,,17,,,Active,,,https://www.redfin.com/NJ/Bloomfield/49-Oakwood-Ave-07003/home/36112321,NJMLS,25008901,N,Y,40.7904856,-74.182634
MLS Listing,,Condo/Co-op,10 PROVOST St #2001,Jersey City,NJ,07302,1225000,2,2.0,Jersey City (Downtown),1053,,,17,1163,1245,Active,,,https://www.redfin.com/NJ/Jersey-City/10-Provost-St-07302/unit-2001/home/167651999,HCMLS,250005415,N,Y,40.7202811,-74.0387351
MLS Listing,,Condo/Co-op,172 CULVER Ave #301,Jersey City,NJ,07305,525000,3,2.0,Jersey City (West Bergen),1424,,,17,369,660,Active,,,https://www.redfin.com/NJ/Jersey-City/172-Culver-Ave-07305/unit-301/home/36436332,HCMLS,250005413,N,Y,40.714013,-74.0909825
MLS Listing,,Condo/Co-op,322 3RD St #4,Jersey City,NJ,07302,1395000,3,2.0,Jersey City (Downtown),1604,,,17,870,,Active,,,https://www.redfin.com/NJ/Jersey-City/322-3rd-St-07302/unit-4/home/195111482,HCMLS,250005403,N,Y,40.7237887,-74.0488136
MLS Listing,,Condo/Co-op,2 CONSTITUTION Ct #402,Hoboken,NJ,07030,1895000,3,2.0,Hoboken,1439,,,17,1317,1069,Active,,,https://www.redfin.com/NJ/Hoboken/2-Constitution-Ct-07030/unit-402/home/36644049,HCMLS,250005402,N,Y,40.7521593,-74.0241534
MLS Listing,,Single Family Residential,101 West Ter,Staten Island,NY,10312,995000,4,3.5,Huguenot,2080,3883,2003,17,478,,Active,,,https://www.redfin.com/NY/Staten-Island/101-West-Ter-10312/home/56097818,SIBORMLS,2501497,N,Y,40.533095,-74.1961329
MLS Listing,,Single Family Residential,145 Eltingville Blvd,Staten Island,NY,10312,740000,3,3.0,Eltingville,1276,3920,1915,17,580,,Active,,,https://www.redfin.com/NY/Staten-Island/145-Eltingville-Blvd-10312/home/56023817,SIBORMLS,2406689,N,Y,40.5483636,-74.1649015
MLS Listing,,Single Family Residential,1251 Rahway Rd,Scotch Plains Twp.,NJ,07076-3409,1595000,4,3.0,Scotch Plains Twp.,,40075,1930,17,,,Active,,,https://www.redfin.com/NJ/Scotch-Plains/1251-Rahway-Rd-07076/home/38201808,GSMLS,3952174,N,Y,40.6137517,-74.3921842
MLS Listing,,Condo/Co-op,810 6TH St #2,Union City,NJ,07087,850000,3,2.0,Union City,1324,,,17,642,,Active,,,https://www.redfin.com/NJ/Union-City/810-6th-St-07087/unit-2/home/195111283,HCMLS,250005393,N,Y,40.7580706,-74.0447151
MLS Listing,,Condo/Co-op,810 6TH St #1,Union City,NJ,07087,800000,3,2.0,Union City,1217,,,17,657,,Active,,,https://www.redfin.com/NJ/Union-City/810-6th-St-07087/unit-1/home/195111263,HCMLS,250005392,N,Y,40.7580706,-74.0447151
MLS Listing,,Condo/Co-op,35 MANHATTAN Ave #4,Jersey City,NJ,07306,579000,2,2.0,Jersey City (Heights),943,,,17,614,,Active,,,https://www.redfin.com/NJ/Jersey-City/35-Manhattan-Ave-07307/unit-4/home/179401790,HCMLS,250005391,N,Y,40.742019,-74.050481
MLS Listing,,Single Family Residential,58 Heberton Ave,Staten Island,NY,10302,500000,3,1.0,Port Richmond,962,1092,1910,17,520,,Active,,,https://www.redfin.com/NY/Staten-Island/58-Heberton-Ave-10302/home/56063565,SIBORMLS,2501368,N,Y,40.6384307,-74.130423
MLS Listing,,Ranch,25 Rock Spring Ave,West Orange,NJ,07052,849000,4,3.0,West Orange,,12502,,17,,,Active,,,https://www.redfin.com/NJ/West-Orange/25-Rock-Spring-Ave-07052/home/36362470,NJMLS,25009037,N,Y,40.7737061,-74.2752158
MLS Listing,,Single Family Residential,2431 Dayton Ave,Union Twp.,NJ,07083-5002,525000,3,1.5,Union Twp.,,5662,1961,17,,,Active,,,https://www.redfin.com/NJ/Union/2431-Dayton-Ave-07083/home/38151658,GSMLS,3952166,N,Y,40.7063273,-74.2830246
MLS Listing,,Single Family Residential,65 Dellwood Ave,Chatham Twp.,NJ,07928-1701,3488000,6,7.5,Chatham Twp.,7333,22215,2007,17,476,,Active,,,https://www.redfin.com/NJ/Chatham/65-Dellwood-Ave-07928/home/37143192,GSMLS,3949669,N,Y,40.7286292,-74.3998891
MLS Listing,,Townhouse,103 Stonehedge Ct,Franklin Twp.,NJ,08873-4733,415000,2,2.5,Quailbrook Manorhomes,1454,2178,1986,17,285,319,Active,,,https://www.redfin.com/NJ/Somerset/103-Stonehedge-Ct-08873/home/37871792,GSMLS,3952157,N,Y,40.5143998,-74.5143825
MLS Listing,,Single Family Residential,233 Knollcrest Ct,Franklin Twp.,NJ,08873-6030,790000,3,3.0,Somerset Run,,6969,2004,17,,389,Active,,,https://www.redfin.com/NJ/Somerset/233-Knollcrest-Ct-08873/home/37652592,GSMLS,3952149,N,Y,40.5245575,-74.5390128
MLS Listing,,Townhouse,54 Dexter Dr N,Bernards Twp.,NJ,07920,799900,3,3.5,The Barons,,,1986,17,,567,Active,,,https://www.redfin.com/NJ/Basking-Ridge/54-Dexter-Dr-N-07920/home/37692932,GSMLS,3951908,N,Y,40.6844869,-74.5363548
MLS Listing,,Multi-Family (2-4 Unit),129 22nd St,Irvington Twp.,NJ,07111-4421,599000,5,2.0,Irvington Twp.,19998,4791,1910,17,30,,Active,,,https://www.redfin.com/NJ/Irvington/129-22nd-St-07111/home/36173830,GSMLS,3952139,N,Y,40.733679,-74.2150061
MLS Listing,,Single Family Residential,11 Earl Pl,New Providence Boro,NJ,07974-1034,1499000,5,4.5,New Providence Boro,4314,12196,2025,17,347,,Active,,,https://www.redfin.com/NJ/New-Providence/11-Earl-Pl-07974/home/195079217,GSMLS,3951215,N,Y,40.6969719,-74.4230287
MLS Listing,,Multi-Family (2-4 Unit),238 York Ave,Staten Island,NY,10301,1600000,10,5.0,New Brighton,3700,5100,1931,17,432,,Active,,,https://www.redfin.com/NY/Staten-Island/238-York-Ave-10301/home/56132639,SIBORMLS,2501496,N,Y,40.640478,-74.088184
MLS Listing,,Single Family Residential,144 Inman Ave,Colonia,NJ,07067,399000,2,1.0,Colonia,,,1936,18,,,Active,,,https://www.redfin.com/NJ/Colonia/144-Inman-Ave-07067/home/37017081,CJMLS,2510711R,N,Y,40.600631,-74.3092317
MLS Listing,,Multi-Family (2-4 Unit),364 85th St,Brooklyn,NY,11209,1698000,6,4.0,Brooklyn,2170,1917,1910,18,782,,Active,,,https://www.redfin.com/NY/Brooklyn/364-85th-St-11209/home/40818175,OneKey® MLS as Distributed by MLS Grid,834905,N,Y,40.623744,-74.0288589
MLS Listing,,Multi-Family (2-4 Unit),144 Avenue C,Bayonne,NJ,07002,649900,5,3.0,Bayonne,,2161,,18,,,Active,,,https://www.redfin.com/NJ/Bayonne/144-Avenue-C-07002/home/36475508,NJMLS,25009019,N,Y,40.6509447,-74.1299417
MLS Listing,,Single Family Residential,179 Hollywood Ave,Irvington,NJ,07111,495000,3,3.0,Irvington,,3751,,18,,,Active,,,https://www.redfin.com/NJ/Irvington/179-Hollywood-Ave-07111/home/36182411,NJMLS,25009020,N,Y,40.7134099,-74.25287
MLS Listing,,Single Family Residential,1273 Mount Airy Rd,Bernards Twp.,NJ,07920-2459,985000,4,2.5,Bernards Twp.,,40510,1965,18,,,Active,,,https://www.redfin.com/NJ/Basking-Ridge/1273-Mount-Airy-Rd-07920/home/37692595,GSMLS,3952129,N,Y,40.6636695,-74.5748734
MLS Listing,,Townhouse,26 HALF MOON Isle,Jersey City,NJ,07305,969000,3,2.5,Jersey City (Greenville),2200,,,18,440,,Active,,,https://www.redfin.com/NJ/Jersey-City/26-Half-Moon-Isle-07305/home/40622761,HCMLS,250005382,N,Y,40.6876988,-74.0724595
MLS Listing,,Single Family Residential,37 Undercliff Rd,Millburn,NJ,07041,2380000,6,4.0,Millburn,,7196,,18,,,Active,,,https://www.redfin.com/NJ/Millburn/37-Undercliff-Rd-07041/home/36205176,NJMLS,24050884,N,Y,40.7212749,-74.3017098
MLS Listing,,Townhouse,629 Marcy Ave,Staten Island,NY,10309,1399000,4,3.5,Huguenot,2200,4040,2006,18,636,,Active,,,https://www.redfin.com/NY/Staten-Island/629-Marcy-Ave-10309/home/56114204,SIBORMLS,2501495,N,Y,40.5416591,-74.201544
MLS Listing,,Single Family Residential,185 Midfield Ave,Colonia,NJ,07067,625000,4,2.0,Colonia,2200,,1947,18,284,,Active,,,https://www.redfin.com/NJ/Colonia/185-Midfield-Rd-07067/home/37008039,CJMLS,2510712R,N,Y,40.5871189,-74.2939424
MLS Listing,,Multi-Family (2-4 Unit),22 Kossuth St,Newark,NJ,07105,639900,5,4.0,Newark,,2500,,18,,,Active,,,https://www.redfin.com/NJ/Newark/22-Kossuth-St-07105/home/195052439,NJMLS,25008934,N,Y,40.722969,-74.1494342
MLS Listing,,Multi-Family (2-4 Unit),142 Maple Ave,Montclair Twp.,NJ,07042-4588,1199000,7,3.0,Montclair Twp.,,15245,1918,18,,,Active,,,https://www.redfin.com/NJ/Montclair/142-Maple-Ave-07042/home/36223966,GSMLS,3952103,N,Y,40.802604,-74.2153563
MLS Listing,,Townhouse,292 Sunset Ky,Secaucus,NJ,07094,615000,3,2.5,Secaucus,,,,18,,704,Active,,,https://www.redfin.com/NJ/Secaucus/292-Sunset-Ky-07094/home/36604374,NJMLS,25008672,N,Y,40.786505,-74.077954
MLS Listing,,Condo/Co-op,389 WASHINGTON St Unit 33B,Jersey City,NJ,07302,619000,1,1.0,Jersey City (Downtown),615,,,18,1007,548,Active,,,https://www.redfin.com/NJ/Jersey-City/389-Washington-St-07302/unit-33B/home/40620790,HCMLS,250005372,N,Y,40.7214644,-74.036852
MLS Listing,,Condo/Co-op,33-37 W 32ND St Unit G1,Bayonne,NJ,07002,280000,2,1.0,Bayonne,768,,,18,365,188,Active,,,https://www.redfin.com/NJ/Bayonne/33-37-W-32nd-St-07002/unit-G1/home/185808886,HCMLS,250005284,N,Y,40.6723011,-74.1131453
MLS Listing,,Condo/Co-op,209 6TH St,Hoboken,NJ,07030,4100000,5,5.5,Hoboken,3500,,,18,1171,,Active,,,https://www.redfin.com/NJ/Hoboken/209-6th-St-07030/home/36498099,HCMLS,250005371,N,Y,40.7437787,-74.0313799
MLS Listing,,Townhouse,476 Midland Ave,Staten Island,NY,10306,788000,5,3.0,Midland Beach,2000,3744,1945,18,394,,Active,,,https://www.redfin.com/NY/Staten-Island/476-Midland-Ave-10306/home/109619968,SIBORMLS,2501491,N,Y,40.574161,-74.0969369
MLS Listing,,Single Family Residential,1045 Thayer Ave,Avenel,NJ,07001,479900,4,2.0,Avenel,1176,4199,1978,18,408,,Active,,,https://www.redfin.com/NJ/Avenel/1045-Thayer-Ave-07001/home/37027335,CJMLS,2510529R,N,Y,40.5774898,-74.268059
MLS Listing,,Single Family Residential,37 Wardell Rd,Livingston,NJ,07039,2299000,6,5.5,Livingston,,14301,,18,,,Active,,,https://www.redfin.com/NJ/Livingston/37-Wardell-Rd-07039/home/36061421,NJMLS,25008977,N,Y,40.7759329,-74.3161868
MLS Listing,,Multi-Family (2-4 Unit),222 Snyder St,City Of Orange Twp.,NJ,07050-3708,695000,5,2.0,City Of Orange Twp.,,6098,1940,18,,,Active,,,https://www.redfin.com/NJ/Orange/222-Snyder-St-07050/home/36324381,GSMLS,3952078,N,Y,40.774317,-74.2251253
MLS Listing,,Single Family Residential,399 Middlesex Ave,Colonia,NJ,07067,720000,3,2.5,Colonia,,43560,,18,,,Active,,,https://www.redfin.com/NJ/Colonia/399-Middlesex-Ave-07067/home/37012485,CJMLS,2561243M,N,Y,40.5823478,-74.3167364
MLS Listing,,Multi-Family (2-4 Unit),300-302 BERGENLINE Ave,Union City,NJ,07087,1250000,8,4.0,Union City,,,,18,,,Active,,,https://www.redfin.com/NJ/Union-City/300-302-Bergenline-Ave-07087/home/185897668,HCMLS,250005365,N,Y,40.754198,-74.040786
MLS Listing,,Condo/Co-op,319 1ST St #108,Jersey City,NJ,07302,1460000,3,2.5,Jersey City (Downtown),2240,,,18,652,435,Active,,,https://www.redfin.com/NJ/Jersey-City/319-1st-St-07302/unit-108/home/36415799,HCMLS,250005363,N,Y,40.721966,-74.048186
MLS Listing,,Single Family Residential,84 Elm St,Staten Island,NY,10310,699000,3,3.5,Randall Manor,1476,3503,1965,18,474,,Active,,,https://www.redfin.com/NY/Staten-Island/84-Elm-St-10310/home/186231370,SIBORMLS,2501489,N,Y,40.6398207,-74.1145676
MLS Listing,,Condo/Co-op,650 MONTGOMERY St #505,Jersey City,NJ,07306,995000,2,2.0,Jersey City (Journal Square),1407,,,18,707,785,Active,,,https://www.redfin.com/NJ/Jersey-City/650-Montgomery-St-07306/unit-505/home/36443424,HCMLS,250005360,N,Y,40.7241966,-74.0646078
MLS Listing,,Condo/Co-op,155 BAY St #809,Jersey City,NJ,07302,3440000,3,2.5,Jersey City (Downtown),2382,,,18,1444,2463,Active,,,https://www.redfin.com/NJ/Jersey-City/155-Bay-St-07302/unit-809/home/195106042,HCMLS,250005359,N,Y,40.7207372,-74.0403383
MLS Listing,,Single Family Residential,297 Burbank Ave,Staten Island,NY,10306,749000,2,2.0,New Dorp,935,4000,1950,18,801,,Active,,,https://www.redfin.com/NY/Staten-Island/297-Burbank-Ave-10306/home/56125407,SIBORMLS,2501487,N,Y,40.5729447,-74.1092109
MLS Listing,,Single Family Residential,142 Dehart Ave,Staten Island,NY,10303,649900,4,2.0,Mariners Harbor,1323,2800,1940,18,491,,Active,,,https://www.redfin.com/NY/Staten-Island/142-Dehart-Ave-10303/home/56084829,SIBORMLS,2501486,N,Y,40.6328464,-74.1572668
MLS Listing,,Single Family Residential,120 Myrtle St,Roselle Boro,NJ,07203-1404,479000,4,2.0,Roselle Boro,,3920,1920,18,,,Active,,,https://www.redfin.com/NJ/Roselle/120-Myrtle-St-07203/home/38020924,GSMLS,3948845,N,Y,40.6607003,-74.2529604
MLS Listing,,Multi-Family (2-4 Unit),30 ASTOR Pl,Jersey City,NJ,07304,899000,4,3.0,Jersey City (Journal Square),,,,18,,,Active,,,https://www.redfin.com/NJ/Jersey-City/30-Astor-Pl-07304/home/36570920,HCMLS,250005355,N,Y,40.7182214,-74.0679865
MLS Listing,,Townhouse,24 Nadal Pl,Staten Island,NY,10314,899999,3,2.0,Bulls Head,2068,3675,1970,18,435,,Active,,,https://www.redfin.com/NY/Staten-Island/24-Nadal-Pl-10314/home/56101889,SIBORMLS,2501485,N,Y,40.612936,-74.167563
MLS Listing,,Condo/Co-op,409 Metzger Dr,West Orange,NJ,07052,998000,2,2.5,West Orange,,,,18,,2468,Active,,,https://www.redfin.com/NJ/West-Orange/409-Metzger-Dr-07052/home/36081238,NJMLS,25008140,N,Y,40.772266,-74.292639
MLS Listing,,Multi-Family (2-4 Unit),225 FREEMAN Ave,Jersey City,NJ,07306,1048000,6,5.0,Jersey City (Journal Square),,,,18,,,Active,,,https://www.redfin.com/NJ/Jersey-City/225-Freeman-Ave-07306/home/36545384,HCMLS,250005353,N,Y,40.7304003,-74.0819317
MLS Listing,,Single Family Residential,967 Bard Ave,Staten Island,NY,10301,1049000,5,4.0,West Brighton,2344,4399,1986,18,448,,Active,,,https://www.redfin.com/NY/Staten-Island/967-Bard-Ave-10301/home/56024409,SIBORMLS,2501484,N,Y,40.6207449,-74.1093371
MLS Listing,,Multi-Family (2-4 Unit),250 Amherst St,East Orange City,NJ,07018-2507,579000,8,3.0,East Orange City,,3049,1900,18,,,Active,,,https://www.redfin.com/NJ/East-Orange/250-Amherst-St-07018/home/36150884,GSMLS,3952058,N,Y,40.7566106,-74.22222
MLS Listing,,Single Family Residential,74 Meisel Ave,Springfield Twp.,NJ,07081-1827,619000,4,2.0,Springfield Twp.,,7405,1951,18,,,Active,,,https://www.redfin.com/NJ/Springfield/74-Meisel-Ave-07081/home/38074114,GSMLS,3952060,N,Y,40.7078503,-74.3083911
MLS Listing,,Condo/Co-op,100 MANHATTAN Ave #1104,Union City,NJ,07087,325000,1,1.0,Union City,695,,,18,468,,Active,,,https://www.redfin.com/NJ/Union-City/100-Manhattan-Ave-07087/unit-1104/home/177200131,HCMLS,250005348,N,Y,40.7516276,-74.0374459
MLS Listing,,Multi-Family (2-4 Unit),151 Orchard St,Bloomfield Twp.,NJ,07003-5131,699900,5,3.0,Bloomfield Twp.,1998,12196,1890,18,350,,Active,April-13-2025 12:00 PM,April-13-2025 03:00 PM,https://www.redfin.com/NJ/Bloomfield/151-Orchard-St-07003/home/36113394,GSMLS,3952040,N,Y,40.7984117,-74.1852476
MLS Listing,,Multi-Family (2-4 Unit),192 N CENTER St,Orange,NJ,07050,499000,5,2.0,Orange,,,,18,,,Active,,,https://www.redfin.com/NJ/Orange/192-N-Center-St-07050/home/36322686,HCMLS,250005344,N,Y,40.7765297,-74.2250058
MLS Listing,,Single Family Residential,195 Barclay Ct,Piscataway,NJ,08854,399000,2,2.0,Piscataway,,,2002,18,,311,Active,,,https://www.redfin.com/NJ/Piscataway/195-Barclay-Ct-08854/home/195104163,CJMLS,2510392R,N,Y,40.5660301,-74.4917913
MLS Listing,,Single Family Residential,517 W Curtis St,Linden City,NJ,07036-5043,569000,3,2.0,Linden City,,4356,1928,18,,,Active,,,https://www.redfin.com/NJ/Linden/517-W-Curtis-St-07036/home/37936762,GSMLS,3952025,N,Y,40.6310604,-74.263267
MLS Listing,,Single Family Residential,713 Mountain Ave,Bound Brook Boro,NJ,08805-1401,425000,3,2.0,Bound Brook Boro,,14374,1956,18,,,Active,,,https://www.redfin.com/NJ/Bound-Brook/713-Mountain-Ave-08805/home/37726161,GSMLS,3952024,N,Y,40.5731168,-74.5284705
MLS Listing,,Multi-Family (2-4 Unit),1809 BERGENLINE Ave,Union City,NJ,07087,930000,12,6.0,Union City,,,,18,,,Active,,,https://www.redfin.com/NJ/Union-City/1809-Bergenline-Ave-07087/home/195090690,HCMLS,250005342,N,Y,40.7639344,-74.0350955
MLS Listing,,Condo/Co-op,202 MERSELES St #504,Jersey City,NJ,07302,999000,2,2.0,Jersey City (Downtown),1303,,,18,767,616,Active,,,https://www.redfin.com/NJ/Jersey-City/202-Merseles-St-07302/unit-504/home/173569140,HCMLS,250005339,N,Y,40.7248901,-74.0520643
MLS Listing,,Condo/Co-op,409 Metzger Dr #409,West Orange Twp.,NJ,07052-6622,998000,2,2.5,Vizcaya,2553,,2009,18,391,2468,Active,,,https://www.redfin.com/NJ/West-Orange/409-Metzger-Dr-07052/unit-409/home/172387718,GSMLS,3952023,N,Y,40.77241,-74.29228
MLS Listing,,Single Family Residential,271 Rose St,Newark,NJ,07108,449999,4,1.5,Newark,,2378,,18,,,Active,,,https://www.redfin.com/NJ/Newark/271-Rose-St-07108/home/36272168,NJMLS,25008940,N,Y,40.7293221,-74.1995459
MLS Listing,,Multi-Family (2-4 Unit),2011 Tyler St,Union Twp.,NJ,07083-5317,799900,5,4.0,Union Twp.,,4356,1923,18,,,Active,,,https://www.redfin.com/NJ/Union/2011-Tyler-St-07083/home/38155527,GSMLS,3952012,N,Y,40.7032936,-74.2635899
MLS Listing,,Single Family Residential,535-2 Willow Rd E,Staten Island,NY,10314,485000,2,1.5,Westerleigh,1248,1248,1978,18,389,366,Active,,,https://www.redfin.com/NY/Staten-Island/535-Willow-Rd-E-10314/unit-2/home/56094031,SIBORMLS,2501480,N,Y,40.6120543,-74.1510992
MLS Listing,,Condo/Co-op,180 72nd St #317,Brooklyn,NY,11209,358000,2,1.0,Brooklyn,900,,1932,18,398,,Active,,,https://www.redfin.com/NY/Brooklyn/180-72nd-St-11209/unit-317/home/195103208,BNYMLS,490062,N,Y,40.6342477,-74.0304474
MLS Listing,,Single Family Residential,60 Marie Ave,Bridgewater Twp.,NJ,08807-3154,350000,3,1.0,Bridgewater Twp.,,7840,1952,18,,,Active,,,https://www.redfin.com/NJ/Bridgewater/60-Marie-Ave-08807/home/37761676,GSMLS,3939189,N,Y,40.568087,-74.5844747
MLS Listing,,Condo/Co-op,30 FREEDOM Way #104,Jersey City,NJ,07305,589000,2,2.0,Jersey City (Greenville),1510,,,18,390,1262,Active,,,https://www.redfin.com/NJ/Jersey-City/30-Freedom-Way-07305/unit-104/home/40617836,HCMLS,250005331,N,Y,40.6904701,-74.0746165
MLS Listing,,Single Family Residential,53 Willis Ave,Staten Island,NY,10301,625000,3,3.5,Tompkinsville,1325,2209,2019,18,472,,Active,,,https://www.redfin.com/NY/Staten-Island/53-Willis-Ave-10301/home/147665381,SIBORMLS,2501478,N,Y,40.6354817,-74.0831206
MLS Listing,,Condo/Co-op,1003 GARDEN St #2,Hoboken,NJ,07030,699000,1,1.0,Hoboken,727,,,18,961,518,Active,,,https://www.redfin.com/NJ/Hoboken/1003-Garden-St-07030/unit-2/home/36421146,HCMLS,250005326,N,Y,40.7489867,-74.0290228
MLS Listing,,Single Family Residential,11 GAIL Pl,Secaucus,NJ,07094,989000,3,2.5,Secaucus,,,,18,,,Active,,,https://www.redfin.com/NJ/Secaucus/11-Gail-Pl-07094/home/36611127,HCMLS,250005321,N,Y,40.7943922,-74.0553049
MLS Listing,,Condo/Co-op,601 OBSERVER Hwy #204,Hoboken,NJ,07030,995000,2,2.0,Hoboken,1222,,,18,814,364,Active,,,https://www.redfin.com/NJ/Hoboken/601-Observer-Hwy-07030/unit-204/home/36437627,HCMLS,250005318,N,Y,40.7371723,-74.0411205
